stop_id,stop_code,stop_name,stop_desc,stop_lat,stop_lon,zone_id,wheelchair_boarding
24,,"2ND ST & SCOTTSDALE RD",,33.491186,-111.926433,0,0
27,12654,"5TH ST & MYRTLE AVE",,33.425430,-111.938014,0,0
29,17376,"8TH ST & ALMA SCHOOL RD",,33.429305,-111.855508,0,0
30,17377,"8TH ST & WESTWOOD",,33.429322,-111.851715,0,0
37,16929,"ALAMEDA DR & COLLEGE AVE",,33.400116,-111.934508,0,0
38,16928,"ALAMEDA DR & MILL AVE",,33.400044,-111.938708,0,0
40,18157,"APACHE BLVD & COLLEGE AVE",,33.414650,-111.934509,0,0
48,12526,"APACHE BLVD -- PRICE RD & LEBANON LN",,33.414771,-111.887505,0,0
53,13159,"ARBOR AVE & PINNULE CIR",,33.410682,-111.695374,0,0
54,17088,"ARBOR AVE & RECKER RD",,33.413653,-111.701515,0,0
55,13158,"ARBOR AVE -- RECKER RD & PINNULE CIR",,33.412644,-111.697055,0,0
56,14934,"BASELINE RD & 16TH ST",,33.377659,-112.046512,0,0
57,14945,"BASELINE RD & 44TH ST",,33.378059,-111.986810,0,0
58,14930,"BASELINE RD & 7TH ST",,33.377662,-112.064006,0,0
59,14959,"BASELINE RD & DORSEY LN",,33.378281,-111.917230,0,0
60,14962,"BASELINE RD & HAZELTON LN",,33.378372,-111.904516,0,0
63,14953,"BASELINE RD & ASH AVE",,33.378144,-111.941812,0,0
65,14932,"BASELINE RD & 12TH ST",,33.377654,-112.056816,0,0
67,14933,"BASELINE RD & 14TH ST",,33.377662,-112.052517,0,0
68,14936,"BASELINE RD & 20TH ST",,33.377654,-112.039510,0,0
69,12032,"BASELINE RD & 27TH ST",,33.377750,-112.026753,0,0
70,14939,"BASELINE RD & 32ND ST",,33.377936,-112.012310,0,0
71,14941,"BASELINE RD & 36TH ST",,33.377974,-112.005379,0,0
72,14943,"BASELINE RD & 41ST ST",,33.378024,-111.994831,0,0
73,14944,"BASELINE RD & 42ND PL",,33.378007,-111.991802,0,0
74,14946,"BASELINE RD & 46TH ST",,33.378065,-111.983804,0,0
76,14931,"BASELINE RD & 9TH ST",,33.377656,-112.061207,0,0
78,10761,"BASELINE RD & CENTRAL AVE",,33.377640,-112.072515,0,0
79,14955,"BASELINE RD & COLLEGE AVE",,33.378161,-111.934313,0,0
80,14963,"BASELINE RD & COUNTRY CLUB WY",,33.378383,-111.900309,0,0
81,14966,"BASELINE RD & DON CARLOS",,33.378377,-111.890215,0,0
82,14967,"BASELINE RD & EL DORADO",,33.378407,-111.884826,0,0
83,14951,"BASELINE RD & HARDY DR",,33.378133,-111.952366,0,0
84,10467,"BASELINE RD & JESSE OWENS PKWY",,33.377654,-112.068807,0,0
86,14958,"BASELINE RD & LAKESHORE DR",,33.378279,-111.920348,0,0
87,14960,"BASELINE RD & MARINE DR",,33.378320,-111.913630,0,0
88,14961,"BASELINE RD & MCCLINTOCK DR",,33.378355,-111.907817,0,0
89,14954,"BASELINE RD & MILL AVE",,33.378147,-111.938714,0,0
92,14964,"BASELINE RD & RIVER DR",,33.378394,-111.897112,0,0
93,14956,"BASELINE RD & RURAL RD",,33.378177,-111.928505,0,0
94,15851,"BASELINE RD & SOSSAMAN RD",,33.379188,-111.667362,0,0
95,14942,"BASELINE RD & 38TH PL",,33.377972,-112.000302,0,0
96,14957,"BASELINE RD -- RURAL RD & LAKESHORE DR",,33.378185,-111.926450,0,0
97,14965,"BASELINE RD & PRICE RD",,33.378405,-111.894316,0,0
98,13160,"BAYWOOD AVE & DIEGO CIR",,33.410293,-111.691309,0,0
99,13161,"BAYWOOD AVE -- DIEGO CIR & POWER RD",,33.410293,-111.689008,0,0
100,13164,"BAYWOOD AVE -- POWER RD & DIEGO CIR",,33.410493,-111.688009,0,0
101,16604,"BELL RD & 12TH ST",,33.640191,-112.055809,0,0
102,16605,"BELL RD & 14TH ST",,33.640194,-112.052007,0,0
103,16606,"BELL RD & 16TH ST",,33.640194,-112.047709,0,0
104,16607,"BELL RD & 18TH ST",,33.640191,-112.043506,0,0
105,16608,"BELL RD & 20TH ST",,33.640292,-112.039007,0,0
106,16610,"BELL RD & 26TH ST",,33.640292,-112.026207,0,0
107,16611,"BELL RD & 28TH ST",,33.640476,-112.021776,0,0
108,16612,"BELL RD & 30TH ST",,33.640292,-112.017511,0,0
109,16613,"BELL RD & 32ND ST",,33.640511,-112.012720,0,0
110,16614,"BELL RD & 34TH WY",,33.640492,-112.007207,0,0
111,17493,"EB BELL RD NS 36TH ST",,33.640575,-112.005010,0,0
112,16616,"BELL RD & 38TH ST",,33.640492,-111.999706,0,0
113,16601,"BELL RD & 3RD ST",,33.639991,-112.069206,0,0
114,16617,"BELL RD & 40TH ST",,33.640492,-111.995506,0,0
115,16618,"BELL RD & 41ST ST",,33.640492,-111.992708,0,0
116,16619,"BELL RD & 44TH ST",,33.640492,-111.985809,0,0
117,16620,"BELL RD -- 44TH ST & TATUM BLVD",,33.640292,-111.979807,0,0
118,16623,"BELL RD & 52ND ST",,33.640292,-111.968211,0,0
119,16624,"BELL RD & 54TH ST",,33.640292,-111.964208,0,0
120,16625,"BELL RD & 56TH ST",,33.640191,-111.959507,0,0
121,16626,"BELL RD & 58TH ST",,33.640194,-111.955310,0,0
122,16627,"BELL RD & 60TH ST",,33.640191,-111.951209,0,0
123,16628,"BELL RD & 61ST PL",,33.640290,-111.947708,0,0
124,16629,"BELL RD & 64TH ST",,33.640262,-111.942014,0,0
125,16630,"BELL RD & 66TH ST",,33.640191,-111.938208,0,0
126,16631,"BELL RD & 68TH ST",,33.639687,-111.933311,0,0
127,16602,"BELL RD & 7TH ST",,33.639991,-112.065009,0,0
128,16603,"BELL RD & 9TH ST",,33.640191,-112.060809,0,0
129,16609,"BELL RD & CAVE CREEK RD",,33.640292,-112.030308,0,0
130,16600,"BELL RD & CENTRAL AVE",,33.639991,-112.073508,0,0
131,16621,"BELL RD & TATUM BLVD",,33.640427,-111.977204,0,0
132,16467,"BELL RD -- 68TH WY & SCOTTSDALE RD",,33.638692,-111.928707,0,0
133,13853,"BETHANY HOME RD & 10TH ST",,33.523664,-112.060212,0,0
134,13854,"BETHANY HOME RD & 12TH ST",,33.523661,-112.055919,0,0
135,13855,"BETHANY HOME RD & 13TH PL",,33.523647,-112.052166,0,0
136,13851,"BETHANY HOME RD & 3RD ST",,33.523691,-112.068810,0,0
137,13852,"BETHANY HOME RD & 7TH ST",,33.523675,-112.064311,0,0
138,13850,"BETHANY HOME RD & CENTRAL AVE",,33.523710,-112.073004,0,0
139,13085,"BROADWAY RD & 41ST ST",,33.407191,-111.992509,0,0
140,13140,"BROADWAY RD & CHESTNUT",,33.408016,-111.783816,0,0
141,13072,"BROADWAY RD & 18TH ST",,33.406723,-112.041636,0,0
142,13152,"BROADWAY RD & 48TH ST",,33.408221,-111.727711,0,0
143,13069,"BROADWAY RD & 12TH ST",,33.406492,-112.055007,0,0
144,13070,"BROADWAY RD & 14TH ST",,33.406605,-112.050810,0,0
145,13071,"BROADWAY RD & 16TH ST",,33.406692,-112.046508,0,0
146,13073,"BROADWAY RD & 20TH ST",,33.406728,-112.038215,0,0
147,13074,"BROADWAY RD & 22ND ST",,33.406692,-112.033509,0,0
148,13075,"BROADWAY RD & 24TH ST",,33.406794,-112.029206,0,0
149,13141,"BROADWAY RD & 24TH ST",,33.407991,-111.779510,0,0
150,13076,"BROADWAY RD & 25TH ST",,33.406821,-112.026711,0,0
151,13077,"BROADWAY RD & 27TH ST",,33.406791,-112.023708,0,0
152,13078,"BROADWAY RD & 28TH ST",,33.406794,-112.020311,0,0
153,13079,"BROADWAY RD & 30TH ST",,33.406892,-112.016304,0,0
154,13144,"BROADWAY RD & 31ST ST",,33.407991,-111.764009,0,0
155,13080,"BROADWAY RD & 32ND ST",,33.406969,-112.012035,0,0
156,13145,"BROADWAY RD & 32ND ST",,33.407991,-111.761810,0,0
157,13081,"BROADWAY RD & 34TH ST",,33.406991,-112.008007,0,0
158,13082,"BROADWAY RD & 36TH ST",,33.407021,-112.003506,0,0
159,13083,"BROADWAY RD & 38TH ST",,33.407153,-111.999163,0,0
160,13084,"BROADWAY RD & 40TH ST",,33.407208,-111.995010,0,0
161,13086,"BROADWAY RD & 43RD PL",,33.407191,-111.987207,0,0
162,13087,"BROADWAY RD & 44TH PL",,33.407194,-111.985208,0,0
163,13088,"BROADWAY RD & 46TH PL",,33.407194,-111.981210,0,0
164,10482,"BROADWAY RD & 4TH ST",,33.406605,-112.068503,0,0
166,13067,"BROADWAY RD & 7TH ST",,33.406558,-112.064007,0,0
167,13068,"BROADWAY RD & 9TH ST",,33.406492,-112.059708,0,0
168,13146,"BROADWAY RD & ALMAR",,33.407991,-111.759709,0,0
169,13137,"BROADWAY RD & BARKLEY",,33.407904,-111.799172,0,0
171,13129,"BROADWAY RD & CENTER ST",,33.407728,-111.831215,0,0
172,10481,"BROADWAY RD & CENTRAL AVE",,33.406649,-112.073016,0,0
173,13112,"BROADWAY RD & COTTONWOOD DR",,33.407435,-111.888733,0,0
174,13108,"BROADWAY RD & COUNTRY CLUB WY",,33.407419,-111.899796,0,0
175,13104,"BROADWAY RD & DORSEY LN",,33.407391,-111.917207,0,0
177,13105,"BROADWAY RD & ELM ST",,33.407405,-111.912700,0,0
178,13139,"BROADWAY RD & GILBERT RD",,33.408027,-111.787972,0,0
179,13150,"BROADWAY RD & GREENFIELD RD",,33.408161,-111.735699,0,0
180,13154,"BROADWAY RD & HIGLEY RD",,33.408191,-111.718208,0,0
181,13133,"BROADWAY RD & OLIVE",,33.407725,-111.816758,0,0
182,13134,"BROADWAY RD & HORNE",,33.407736,-111.813701,0,0
183,13130,"BROADWAY RD & LEWIS",,33.407693,-111.829308,0,0
184,13143,"BROADWAY RD & LINDSAY RD",,33.408024,-111.770298,0,0
185,13107,"BROADWAY RD & LOS FELIZ DR",,33.407369,-111.903815,0,0
186,13148,"BROADWAY RD & MAPLE",,33.408175,-111.747713,0,0
187,13106,"BROADWAY RD & MCCLINTOCK DR",,33.407366,-111.908312,0,0
189,13097,"BROADWAY RD & MILL AVE",,33.407323,-111.939219,0,0
190,13149,"BROADWAY RD & NORWALK",,33.408175,-111.742507,0,0
192,13151,"BROADWAY RD & QUINN",,33.408194,-111.731707,0,0
193,13153,"BROADWAY RD & RACINE",,33.408246,-111.724208,0,0
194,13109,"BROADWAY RD & RIVER DR",,33.407413,-111.897304,0,0
196,17090,"BROADWAY RD & RURAL RD",,33.407438,-111.925512,0,0
197,13100,"BROADWAY RD & SIERRA VISTA DR",,33.407383,-111.930712,0,0
198,13135,"BROADWAY RD & SOLOMON",,33.407794,-111.809508,0,0
200,13136,"BROADWAY RD & STAPLEY DR",,33.407824,-111.804521,0,0
202,13155,"BROADWAY RD & SUNNYVALE",,33.408276,-111.714300,0,0
203,13102,"BROADWAY RD & TERRACE RD",,33.407383,-111.922000,0,0
204,13147,"BROADWAY RD & VAL VISTA DR",,33.407991,-111.752710,0,0
205,13131,"BROADWAY RD & WILBUR",,33.407693,-111.824709,0,0
206,13142,"BROADWAY RD -- ALPINE & WINDSOR",,33.408041,-111.775199,0,0
207,191,"BROADWAY RD -- SHANNON DR & PRICE RD",,33.407419,-111.895338,0,0
208,13103,"BROADWAY RD -- TERRACE RD & DORSEY LN",,33.407383,-111.919801,0,0
209,13111,"BROADWAY RD & PRICE RD",,33.407394,-111.892538,0,0
210,13138,"BROADWAY RD & WILLIAMS",,33.407947,-111.794880,0,0
212,16211,"BROWN RD & 22ND ST",,33.437112,-111.783210,0,0
213,16217,"BROWN RD & 40TH ST",,33.437109,-111.744514,0,0
214,16221,"BROWN RD & 48TH ST",,33.437205,-111.727311,0,0
217,17381,"BROWN RD & COUNTRY CLUB DR",,33.435043,-111.839201,0,0
218,16214,"BROWN RD & CRESTON",,33.437211,-111.761719,0,0
219,16212,"BROWN RD & GAYLORD",,33.437118,-111.778192,0,0
220,16210,"BROWN RD & GILBERT RD",,33.437120,-111.787623,0,0
221,17382,"BROWN RD & GRAND",,33.435035,-111.835339,0,0
222,16219,"BROWN RD & GREENFIELD RD",,33.437159,-111.735703,0,0
223,16213,"BROWN RD & LINDSAY RD",,33.437142,-111.770311,0,0
224,16215,"BROWN RD & MIRA MAR CIR",,33.437222,-111.756812,0,0
225,16218,"BROWN RD & NEW HAVEN",,33.437172,-111.741212,0,0
226,17380,"BROWN RD & DATE",,33.435010,-111.842508,0,0
229,16220,"BROWN RD & QUAIL",,33.437205,-111.729709,0,0
230,16222,"BROWN RD & ROCHESTER",,33.437211,-111.724711,0,0
231,16216,"BROWN RD & VAL VISTA DR",,33.437175,-111.752817,0,0
233,16223,"BROWN RD -- ROSEMONT & HIGLEY RD",,33.437208,-111.720806,0,0
234,17383,"BROWN RD & CENTER ST",,33.434865,-111.831846,0,0
235,10994,"BUCKEYE RD & 9TH ST",,33.436693,-112.061205,0,0
236,10995,"BUCKEYE RD & 11TH ST",,33.436693,-112.058207,0,0
237,10997,"BUCKEYE RD & 14TH ST",,33.436693,-112.051505,0,0
238,10998,"BUCKEYE RD & 16TH ST",,33.436712,-112.047577,0,0
239,11001,"BUCKEYE RD & 24TH ST",,33.436701,-112.034035,0,0
240,11002,"BUCKEYE RD & COPPERHEAD DR",,33.436671,-112.029504,0,0
241,11003,"BUCKEYE RD & 26TH ST",,33.436646,-112.025308,0,0
242,10992,"BUCKEYE RD & 5TH ST",,33.436693,-112.066705,0,0
243,10993,"BUCKEYE RD & 7TH ST",,33.436693,-112.064308,0,0
244,10999,"BUCKEYE RD & SKY HARBOR CIR",,33.436696,-112.042708,0,0
245,10996,"BUCKEYE RD & 13TH ST",,33.436693,-112.054808,0,0
246,11000,"BUCKEYE RD & I-10 FWY",,33.436616,-112.040296,0,0
247,15617,"CACTUS RD & 38TH ST",,33.596993,-111.999507,0,0
248,15610,"CACTUS RD & 24TH ST",,33.596492,-112.030007,0,0
250,15613,"CACTUS RD & 28TH ST",,33.596692,-112.021308,0,0
251,15614,"CACTUS RD & 30TH ST",,33.596793,-112.017210,0,0
252,15615,"CACTUS RD & 32ND ST",,33.596938,-112.012016,0,0
253,15616,"CACTUS RD & 36TH ST",,33.596941,-112.004002,0,0
254,15618,"CACTUS RD & 40TH ST",,33.596790,-111.995007,0,0
255,15619,"CACTUS RD & 42ND ST",,33.597993,-111.991009,0,0
260,18019,"CACTUS RD & CAVE CREEK RD",,33.596692,-112.037307,0,0
262,15612,"CACTUS RD & 27TH ST",,33.596692,-112.025009,0,0
263,15609,"CACTUS RD & ESCOBAR WY",,33.596492,-112.035208,0,0
264,13352,"CAMELBACK RD & LAUNFAL AVE",,33.507792,-111.976008,0,0
265,12393,"CAMELBACK RD & 10TH ST",,33.508992,-112.059809,0,0
266,12394,"CAMELBACK RD & 12TH ST",,33.509151,-112.056029,0,0
267,12395,"CAMELBACK RD & 14TH PL",,33.509148,-112.050307,0,0
268,12396,"CAMELBACK RD & 16TH ST",,33.509118,-112.046834,0,0
269,12397,"CAMELBACK RD & 18TH ST",,33.509143,-112.042512,0,0
270,18053,"CAMELBACK RD & 20TH ST",,33.509170,-112.038200,0,0
271,13339,"CAMELBACK RD & 22ND ST",,33.509154,-112.033803,0,0
272,13340,"CAMELBACK RD & 24TH ST",,33.509225,-112.029203,0,0
273,13341,"CAMELBACK RD & 26TH ST",,33.509392,-112.024799,0,0
274,18079,"CAMELBACK RD & 28TH ST",,33.509491,-112.020706,0,0
275,13345,"CAMELBACK RD & 34TH PL",,33.509792,-112.007708,0,0
276,13346,"CAMELBACK RD & 36TH ST",,33.509691,-112.003510,0,0
277,13347,"CAMELBACK RD & 38TH ST",,33.509691,-111.999307,0,0
278,12391,"CAMELBACK RD & 3RD ST",,33.509192,-112.069007,0,0
279,18054,"CAMELBACK RD & 40TH ST",,33.509691,-111.994705,0,0
280,13349,"CAMELBACK RD & 42ND ST",,33.509494,-111.991009,0,0
281,18055,"CAMELBACK RD & 44TH ST",,33.509294,-111.986208,0,0
282,13351,"CAMELBACK RD & 46TH PL",,33.509102,-111.979511,0,0
283,13356,"CAMELBACK RD & 56TH ST",,33.501692,-111.960008,0,0
284,13360,"CAMELBACK RD & 62ND ST",,33.501791,-111.947206,0,0
285,13369,"CAMELBACK RD & 78TH ST",,33.501999,-111.912479,0,0
286,12392,"CAMELBACK RD & 7TH ST",,33.509162,-112.064311,0,0
287,13371,"CAMELBACK RD & 82ND ST",,33.501936,-111.904193,0,0
288,13353,"CAMELBACK RD & ARCADIA DR",,33.505493,-111.972006,0,0
289,13358,"CAMELBACK RD & ARCADIA LN",,33.501788,-111.954909,0,0
290,13357,"CAMELBACK RD & CAMINO ALLENADA",,33.501692,-111.957011,0,0
291,12390,"CAMELBACK RD & CENTRAL AVE",,33.509151,-112.073356,0,0
292,13359,"CAMELBACK RD & JOKAKE RD",,33.501692,-111.951707,0,0
293,13367,"CAMELBACK RD & MILLER RD",,33.502040,-111.917000,0,0
294,13368,"CAMELBACK RD & PARKWAY AVE",,33.502021,-111.915029,0,0
295,13354,"CAMELBACK RD & RUBICON AVE",,33.503492,-111.968308,0,0
296,13366,"CAMELBACK RD & SADDLEBAG TRL",,33.501994,-111.921809,0,0
297,13365,"CAMELBACK RD & BROWN AVE",,33.502125,-111.924704,0,0
298,13343,"CAMELBACK RD & 31ST ST",,33.509691,-112.016807,0,0
299,13344,"CAMELBACK RD & 32ND PL",,33.509872,-112.011568,0,0
300,13361,"CAMELBACK RD & 64TH ST",,33.501939,-111.943203,0,0
301,13363,"CAMELBACK RD & MARSHALL WY",,33.502098,-111.929263,0,0
302,286,"CAMELBACK RD & SCOTTSDALE RD",,33.502139,-111.926245,0,0
303,13370,"CAMELBACK RD & HAYDEN RD",,33.501988,-111.908303,0,0
309,16508,"CHANDLER BLVD & 132ND ST",,33.306278,-111.797206,0,0
310,16498,"CHANDLER BLVD & ARIZONA AVE",,33.306078,-111.840723,0,0
311,16506,"CHANDLER BLVD & COOPER RD",,33.306234,-111.806214,0,0
312,16486,"CHANDLER BLVD & CORONADO ST",,33.305760,-111.889319,0,0
313,16507,"CHANDLER BLVD & COTTONWOOD ST",,33.306338,-111.803149,0,0
314,16500,"CHANDLER BLVD & HAMILTON ST",,33.306042,-111.832311,0,0
315,16501,"CHANDLER BLVD & KINGSTON ST",,33.306070,-111.826507,0,0
316,16502,"CHANDLER BLVD & MCQUEEN RD",,33.306042,-111.823514,0,0
317,17146,"CHANDLER BLVD & 44TH ST",,33.305171,-111.988505,0,0
318,17147,"CHANDLER BLVD & 46TH ST",,33.305193,-111.984206,0,0
319,16509,"CHANDLER BLVD -- 133RD ST & GILBERT RD",,33.306324,-111.793221,0,0
321,13376,"CHAPARRAL RD & 87TH PL",,33.509250,-111.893221,0,0
323,13374,"CHAPARRAL RD & GRANITE REEF RD",,33.509192,-111.899808,0,0
324,13377,"CHAPARRAL RD & PIMA RD",,33.509192,-111.890208,0,0
325,13375,"CHAPARRAL RD & 85TH ST",,33.509192,-111.897807,0,0
326,16182,"CIVIC CENTER DR & NUNNELEY RD",,33.331878,-111.784585,0,0
327,16181,"CIVIC CENTER DR & GILBERT RD",,33.330584,-111.788268,0,0
330,17205,"CURRY RD & MILL AVE",,33.437644,-111.943059,0,0
334,15257,"DUNLAP AVE & 5TH ST",,33.567675,-112.066800,0,0
335,15325,"DUNLAP AVE & 7TH ST",,33.567848,-112.065508,0,0
336,10118,"DUNLAP AVE & CENTRAL AVE --EASTBOUND",,33.567664,-112.073743,0,0
338,15799,"ELLIOT RD & RITA LN",,33.349084,-111.924157,0,0
339,15805,"ELLIOT RD & COUNTRY CLUB WY",,33.349128,-111.902722,0,0
340,15819,"ELLIOT RD & ARIZONA AVE",,33.349618,-111.841006,0,0
341,15820,"ELLIOT RD & COLORADO ST",,33.349604,-111.835784,0,0
342,15832,"ELLIOT RD & 30TH ST",,33.350004,-111.768207,0,0
343,13602,"ELLIOT RD & 48TH ST",,33.348870,-111.979512,0,0
344,13603,"ELLIOT RD & 51ST ST",,33.348862,-111.975530,0,0
345,15797,"ELLIOT RD & COLLEGE AVE",,33.349108,-111.933312,0,0
346,15795,"ELLIOT RD & DATELAND DR",,33.349108,-111.939286,0,0
347,15829,"ELLIOT RD & GILBERT RD",,33.349900,-111.789004,0,0
349,15794,"ELLIOT RD & KYRENE RD",,33.349095,-111.945017,0,0
350,15800,"ELLIOT RD & LAKESHORE DR",,33.349056,-111.919512,0,0
351,15833,"ELLIOT RD & LAKEVIEW DR",,33.350045,-111.763702,0,0
352,15831,"ELLIOT RD & LINDSAY RD",,33.349972,-111.772302,0,0
353,15804,"ELLIOT RD & LOS FELIZ DR",,33.349078,-111.906311,0,0
354,15803,"ELLIOT RD & MCCLINTOCK DR",,33.349040,-111.910708,0,0
355,15796,"ELLIOT RD & MILL AVE",,33.349114,-111.936510,0,0
356,15798,"ELLIOT RD & RURAL RD",,33.349092,-111.927513,0,0
357,15834,"ELLIOT RD & STONECREEK BLVD",,33.350073,-111.759512,0,0
358,15801,"ELLIOT RD & WILLOW DR",,33.349045,-111.914644,0,0
359,15802,"ELLIOT RD -- WILLOW DR & MCCLINTOCK DR",,33.349045,-111.913313,0,0
360,15830,"ELLIOT RD & MORNING RIDGE DR",,33.349944,-111.780822,0,0
361,15806,"ELLIOT RD & RIVER PKWY",,33.349221,-111.898711,0,0
363,10497,"FILLMORE ST & 3RD ST",,33.454431,-112.069810,0,0
365,10498,"FILLMORE ST & 5TH ST",,33.454428,-112.067002,0,0
366,10496,"FILLMORE ST & CENTRAL AVE",,33.454401,-112.073275,0,0
367,16635,"FRANK LLOYD WRIGHT BLVD & 76TH ST",,33.635793,-111.915708,0,0
370,16636,"FRANK LLOYD WRIGHT BLVD & GREENWAY-HAYDEN LOOP",,33.634225,-111.907053,0,0
371,355,"FRANK LLOYD WRIGHT BLVD & NORTHSIGHT BLVD",,33.631910,-111.896663,0,0
372,16634,"FRANK LLOYD WRIGHT BLVD & PROMENADE LN",,33.636793,-111.920206,0,0
373,16637,"FRANK LLOYD WRIGHT BLVD & SCOTTSDALE RD",,33.637878,-111.924956,0,0
375,16638,"FRANK LLOYD WRIGHT BLVD & HAYDEN RD",,33.630444,-111.893877,0,0
376,14484,"GLENDALE AVE & 16TH ST",,33.538135,-112.046013,0,0
377,14482,"GLENDALE AVE & 12TH ST",,33.538132,-112.055517,0,0
378,14714,"GLENDALE AVE & 14TH ST",,33.538129,-112.051056,0,0
379,12486,"GLENDALE AVE & 20TH ST",,33.538193,-112.038207,0,0
380,14479,"GLENDALE AVE & 2ND PL",,33.538193,-112.069209,0,0
381,14480,"GLENDALE AVE & 7TH ST",,33.538162,-112.064308,0,0
382,14478,"GLENDALE AVE & CENTRAL AVE",,33.538212,-112.073193,0,0
383,14485,"GLENDALE AVE & 17TH ST",,33.538162,-112.044812,0,0
387,15844,"GUADALUPE RD & CONSTELLATION WY",,33.364709,-111.729333,0,0
388,14200,"GUADALUPE RD & COLLEGE AVE",,33.363673,-111.933481,0,0
390,15842,"GUADALUPE RD & EXPLORER DR",,33.364679,-111.741713,0,0
391,15843,"GUADALUPE RD & GREENFIELD RD",,33.364602,-111.737722,0,0
392,15845,"GUADALUPE RD & HIGLEY RD",,33.364731,-111.721209,0,0
393,15840,"GUADALUPE RD & KEY BISCAYNE DR",,33.364648,-111.751317,0,0
394,15848,"GUADALUPE RD & PHEASANT DR",,33.364846,-111.699945,0,0
395,15847,"GUADALUPE RD & RECKER RD",,33.364868,-111.704213,0,0
396,15839,"GUADALUPE RD & VAL VISTA DR",,33.364621,-111.755301,0,0
397,14120,"GUADALUPE RD & COUNTRY CLUB WY",,33.363722,-111.902005,0,0
398,14119,"GUADALUPE RD & HAZELTON LN",,33.363698,-111.905998,0,0
399,14204,"GUADALUPE RD & JUNIPER ST",,33.363681,-111.914195,0,0
400,14203,"GUADALUPE RD & LAKESHORE DR",,33.363700,-111.919506,0,0
401,14118,"GUADALUPE RD & MCCLINTOCK DR",,33.363719,-111.910500,0,0
403,14201,"GUADALUPE RD & RURAL RD",,33.363714,-111.928207,0,0
404,14202,"GUADALUPE RD & TERRACE RD",,33.363681,-111.923506,0,0
405,15846,"GUADALUPE RD & COLE DR",,33.364818,-111.708325,0,0
406,15849,"GUADALUPE RD & ROADRUNNER DR",,33.364873,-111.696404,0,0
407,15841,"GUADALUPE RD & 156TH PL",,33.364654,-111.747006,0,0
410,10919,"HATCHER RD & 7TH ST",,33.571314,-112.064966,0,0
411,10918,"HATCHER RD & 3RD ST",,33.571333,-112.069360,0,0
412,10914,"HATCHER RD & 7TH ST",,33.571457,-112.065381,0,0
413,10913,"HATCHER RD & CAVE CREEK RD",,33.571407,-112.060801,0,0
414,10920,"HATCHER RD & 11TH ST",,33.571290,-112.059280,0,0
415,12717,"INDIAN SCHOOL RD & 10TH ST",,33.494622,-112.060513,0,0
416,12718,"INDIAN SCHOOL RD & 12TH ST",,33.494636,-112.055850,0,0
417,12720,"INDIAN SCHOOL RD & 16TH ST",,33.494636,-112.046814,0,0
418,12722,"INDIAN SCHOOL RD & 20TH ST",,33.494693,-112.038210,0,0
419,12723,"INDIAN SCHOOL RD & 22ND ST",,33.494721,-112.034210,0,0
420,12724,"INDIAN SCHOOL RD & 24TH ST",,33.494762,-112.029708,0,0
421,12725,"INDIAN SCHOOL RD & 26TH ST",,33.494861,-112.025309,0,0
422,17083,"INDIAN SCHOOL RD & 28TH ST",,33.494948,-112.021207,0,0
423,12727,"INDIAN SCHOOL RD & 30TH ST",,33.494992,-112.016707,0,0
424,12728,"INDIAN SCHOOL RD & 32ND ST",,33.495083,-112.012513,0,0
425,12729,"INDIAN SCHOOL RD & 34TH ST",,33.495091,-112.008211,0,0
426,12730,"INDIAN SCHOOL RD & 36TH ST",,33.495085,-112.003706,0,0
427,12731,"INDIAN SCHOOL RD & 38TH ST",,33.495058,-111.999307,0,0
428,12715,"INDIAN SCHOOL RD & 3RD ST",,33.494669,-112.069006,0,0
429,12732,"INDIAN SCHOOL RD & 40TH ST",,33.495006,-111.994806,0,0
430,12734,"INDIAN SCHOOL RD & 44TH ST",,33.494737,-111.986298,0,0
431,18059,"INDIAN SCHOOL RD & 48TH ST",,33.494493,-111.977289,0,0
432,12738,"INDIAN SCHOOL RD & 52ND ST",,33.491463,-111.968644,0,0
433,12739,"INDIAN SCHOOL RD & 56TH ST",,33.489007,-111.959806,0,0
434,12741,"INDIAN SCHOOL RD & 63RD PL",,33.489851,-111.945200,0,0
435,12742,"INDIAN SCHOOL RD & 64TH ST",,33.490410,-111.942747,0,0
436,12743,"INDIAN SCHOOL RD & 68TH ST",,33.494682,-111.934269,0,0
438,18032,"INDIAN SCHOOL RD & 7TH ST",,33.494622,-112.064512,0,0
439,12754,"INDIAN SCHOOL RD & 82ND ST",,33.494740,-111.903321,0,0
440,12714,"INDIAN SCHOOL RD & CENTRAL AVE",,33.494702,-112.073008,0,0
441,12750,"INDIAN SCHOOL RD & DRINKWATER BLVD",,33.494814,-111.921205,0,0
442,12748,"INDIAN SCHOOL RD & GOLDWATER BLVD",,33.494784,-111.929811,0,0
443,12753,"INDIAN SCHOOL RD & HAYDEN RD",,33.494751,-111.907208,0,0
444,12751,"INDIAN SCHOOL RD & MILLER RD",,33.494784,-111.916694,0,0
445,12719,"INDIAN SCHOOL RD & 14TH ST",,33.494630,-112.051851,0,0
446,12733,"INDIAN SCHOOL RD & 42ND ST",,33.494902,-111.990806,0,0
447,12735,"INDIAN SCHOOL RD & 45TH PL",,33.494611,-111.982009,0,0
448,12749,"INDIAN SCHOOL RD & SCOTTSDALE RD",,33.494836,-111.925206,0,0
449,12721,"INDIAN SCHOOL RD & 18TH PL",,33.494666,-112.042502,0,0
450,12737,"INDIAN SCHOOL RD & 50TH ST",,33.493685,-111.973175,0,0
451,12740,"INDIAN SCHOOL RD & 60TH ST",,33.490158,-111.951092,0,0
454,15992,"JAVALINA AVE & LEWIS",,33.380331,-111.827517,0,0
456,10219,"JEFFERSON ST & 11TH ST",,33.446991,-112.058308,0,0
457,10220,"JEFFERSON ST & 12TH ST",,33.446991,-112.055806,0,0
458,10221,"JEFFERSON ST & 14TH ST",,33.446994,-112.051510,0,0
459,10223,"JEFFERSON ST & 16TH PL",,33.446994,-112.046705,0,0
460,10224,"JEFFERSON ST & 18TH ST",,33.446991,-112.042705,0,0
461,10226,"JEFFERSON ST & 22ND ST",,33.447120,-112.034203,0,0
462,10227,"JEFFERSON ST & 24TH ST",,33.446994,-112.029707,0,0
465,10217,"JEFFERSON ST & 7TH ST",,33.447142,-112.064309,0,0
466,10218,"JEFFERSON ST & 9TH ST",,33.446994,-112.061707,0,0
468,10222,"JEFFERSON ST & 16TH ST",,33.446991,-112.048206,0,0
472,12487,"LINCOLN DR & 22ND ST",,33.537751,-112.034034,0,0
473,12489,"LINCOLN DR & 24TH ST",,33.532115,-112.028570,0,0
474,12488,"LINCOLN DR & SQUAW PEAK DR",,33.536294,-112.032307,0,0
475,12551,"MAIN ST & GUTHRIE ST",,33.415193,-111.792308,0,0
477,12542,"MAIN ST & CENTER ST",,33.414990,-111.830713,0,0
478,12550,"MAIN ST & HARRIS DR",,33.415163,-111.796511,0,0
479,12543,"MAIN ST & HIBBERT",,33.414984,-111.825509,0,0
480,12545,"MAIN ST & HOBSON",,33.414998,-111.818017,0,0
481,12546,"MAIN ST & HORNE",,33.414993,-111.813510,0,0
482,12549,"MAIN ST & LAZONA DR",,33.415160,-111.800716,0,0
483,12548,"MAIN ST & STAPLEY DR",,33.415083,-111.805156,0,0
485,12547,"MAIN ST & MILLER",,33.415045,-111.809281,0,0
487,12449,"MAYO BLVD & 56TH ST",,33.663722,-111.960311,0,0
488,12445,"MAYO BLVD & TATUM BLVD",,33.668561,-111.976746,0,0
489,14890,"MCDONALD DR & 82ND ST",,33.523694,-111.903807,0,0
490,14891,"MCDONALD DR & 83RD ST",,33.523792,-111.902208,0,0
491,14888,"MCDONALD DR & HAYDEN RD",,33.523820,-111.908061,0,0
492,11355,"MCDOWELL RD & 11TH ST",,33.465663,-112.058065,0,0
493,11361,"MCDOWELL RD & 21ST ST",,33.465688,-112.035314,0,0
494,11362,"MCDOWELL RD & 22ND PL",,33.465690,-112.033507,0,0
495,11371,"MCDOWELL RD & 38TH ST",,33.465611,-111.999310,0,0
496,11354,"MCDOWELL RD & 10TH ST",,33.465655,-112.060605,0,0
497,11356,"MCDOWELL RD & 12TH ST",,33.465671,-112.055513,0,0
498,11357,"MCDOWELL RD & 14TH ST",,33.465682,-112.051509,0,0
499,11358,"MCDOWELL RD & 16TH ST",,33.465693,-112.047307,0,0
500,11359,"MCDOWELL RD & 18TH ST",,33.465690,-112.043007,0,0
501,11360,"MCDOWELL RD & 19TH ST",,33.465696,-112.040711,0,0
502,11363,"MCDOWELL RD & 24TH ST",,33.465688,-112.029704,0,0
503,11364,"MCDOWELL RD & 26TH ST",,33.465690,-112.025509,0,0
504,11365,"MCDOWELL RD & 27TH ST",,33.465690,-112.023209,0,0
505,11366,"MCDOWELL RD & 28TH PL",,33.465679,-112.020010,0,0
506,11349,"MCDOWELL RD & 2ND ST",,33.465658,-112.070712,0,0
507,11367,"MCDOWELL RD & 30TH ST",,33.465679,-112.016804,0,0
508,11368,"MCDOWELL RD & 32ND ST",,33.465658,-112.012203,0,0
509,11369,"MCDOWELL RD & 34TH ST",,33.465647,-112.007703,0,0
510,11370,"MCDOWELL RD & 36TH ST",,33.465625,-112.003702,0,0
511,11350,"MCDOWELL RD & 3RD ST",,33.465658,-112.068807,0,0
512,11372,"MCDOWELL RD & 40TH ST",,33.465595,-111.995422,0,0
513,11373,"MCDOWELL RD & 41ST ST",,33.465589,-111.992807,0,0
514,11375,"MCDOWELL RD & 44TH ST",,33.465575,-111.986875,0,0
515,11377,"MCDOWELL RD & 48TH ST",,33.465551,-111.977806,0,0
516,11378,"MCDOWELL RD & 50TH ST",,33.465534,-111.973897,0,0
518,11380,"MCDOWELL RD & 52ND ST",,33.465408,-111.969298,0,0
519,18070,"MCDOWELL RD & 5TH ST",,33.465652,-112.067266,0,0
520,11382,"MCDOWELL RD & GALVIN PKWY",,33.465649,-111.943244,0,0
521,11383,"MCDOWELL RD & 68TH ST",,33.465477,-111.934001,0,0
522,11384,"MCDOWELL RD & 70TH ST",,33.465542,-111.930212,0,0
523,11386,"MCDOWELL RD & 74TH ST",,33.465630,-111.921213,0,0
524,11387,"MCDOWELL RD & 75TH ST",,33.465647,-111.919232,0,0
525,11389,"MCDOWELL RD & 77TH ST",,33.465647,-111.914012,0,0
526,18071,"MCDOWELL RD & 7TH ST",,33.465649,-112.064849,0,0
527,11381,"MCDOWELL RD & BUSHMASTER BLVD",,33.465345,-111.961011,0,0
528,11348,"MCDOWELL RD & CENTRAL AVE",,33.465663,-112.073209,0,0
529,11388,"MCDOWELL RD & MILLER RD",,33.465658,-111.917014,0,0
530,11385,"MCDOWELL RD & SCOTTSDALE RD",,33.465559,-111.925968,0,0
531,11376,"MCDOWELL RD & 46TH ST",,33.465567,-111.982795,0,0
532,11379,"MCDOWELL RD & 51ST ST",,33.465515,-111.971552,0,0
533,11353,"MCDOWELL RD & 9TH ST",,33.465655,-112.062185,0,0
535,11390,"MCDOWELL RD & HAYDEN RD",,33.465559,-111.910059,0,0
548,14862,"MCKELLIPS RD & SCOTTSDALE RD",,33.451205,-111.925307,0,0
549,16104,"MCKELLIPS RD & STAPLEY DR",,33.451392,-111.803804,0,0
552,11230,"MICHIGAN AVE -- 32ND ST & 34TH ST",,33.651785,-112.012786,0,0
565,10875,"MORELAND ST & 11TH ST",,33.461128,-112.058611,0,0
566,18104,"MOUNTAIN VIEW RD & 90TH PL",,33.574690,-111.884210,0,0
568,11206,"NORTHERN AVE & 12TH ST --EASTBOUND",,33.552965,-112.056104,0,0
569,11207,"NORTHERN AVE & 13TH ST --EASTBOUND",,33.553048,-112.054035,0,0
570,11208,"NORTHERN AVE & 14TH ST --EASTBOUND",,33.553122,-112.051666,0,0
571,11203,"NORTHERN AVE & 3RD ST --EASTBOUND",,33.552680,-112.068776,0,0
572,11204,"NORTHERN AVE & 7TH ST --EASTBOUND",,33.552494,-112.064808,0,0
573,11202,"NORTHERN AVE & CENTRAL AVE --EASTBOUND",,33.552702,-112.073218,0,0
574,11205,"NORTHERN AVE & PUEBLO RD --EASTBOUND",,33.552623,-112.060521,0,0
578,10947,"OSBORN RD & RANDOLPH RD",,33.487292,-112.052008,0,0
579,10946,"OSBORN RD & WEST MANOR DR",,33.487325,-112.055096,0,0
580,14918,"OSBORN RD & 75TH ST",,33.487552,-111.918831,0,0
581,12421,"PARADISE VALLEY TRANSIT CENTER",,33.604751,-111.979096,0,0
583,15623,"PARADISE VALLEY TRANSIT CENTER  & -- TATUM BLVD & 46TH ST",,33.604625,-111.979108,0,0
584,15138,"RAINTREE DR & 82ND ST",,33.618998,-111.903338,0,0
585,15137,"RAINTREE DR & HAYDEN RD",,33.619162,-111.907003,0,0
586,17167,"RAY RD & 40TH PL",,33.319618,-111.998595,0,0
587,17169,"RAY RD & 46TH PL",,33.319744,-111.983711,0,0
588,17170,"RAY RD & 48TH ST",,33.319746,-111.979806,0,0
589,17166,"RAY RD & MOUNTAIN PKWY",,33.315302,-112.006221,0,0
590,17168,"RAY RD & RANCH CIR",,33.319892,-111.991533,0,0
591,13543,"ROESER RD & 18TH PL",,33.399579,-112.042019,0,0
592,13544,"ROESER RD & 20TH ST",,33.399579,-112.038008,0,0
593,13545,"ROESER RD & 22ND PL",,33.399592,-112.034063,0,0
594,13547,"ROESER RD & 27TH ST",,33.399614,-112.023710,0,0
595,13548,"ROESER RD & 28TH ST",,33.399612,-112.020802,0,0
596,13553,"ROESER RD & 36TH ST",,33.399661,-112.003828,0,0
597,13554,"ROESER RD & 38TH PL",,33.399694,-111.998306,0,0
598,13539,"ROESER RD & 9TH ST",,33.399521,-112.059807,0,0
599,13541,"ROESER RD & 14TH WY",,33.399562,-112.049313,0,0
600,13542,"ROESER RD & 16TH ST",,33.399559,-112.046500,0,0
601,13546,"ROESER RD & 24TH ST",,33.399587,-112.029211,0,0
602,13549,"ROESER RD & 28TH PL",,33.399612,-112.018510,0,0
603,13550,"ROESER RD & 31ST PL",,33.399609,-112.014513,0,0
604,13551,"ROESER RD & 32ND ST",,33.399628,-112.012211,0,0
605,13555,"ROESER RD & 40TH ST",,33.399833,-111.995306,0,0
606,13556,"ROESER RD & 42ND PL",,33.399784,-111.991007,0,0
607,13557,"ROESER RD & 44TH ST",,33.399751,-111.987007,0,0
608,13558,"ROESER RD & 46TH ST",,33.399721,-111.982521,0,0
609,13537,"ROESER RD & 4TH ST",,33.399494,-112.068506,0,0
610,13538,"ROESER RD & 7TH ST",,33.399524,-112.063812,0,0
611,13536,"ROESER RD & CENTRAL AVE",,33.399494,-112.072005,0,0
612,13552,"ROESER RD -- 34TH ST & 36TH ST",,33.399642,-112.008515,0,0
613,13540,"ROESER RD & 12TH ST",,33.399546,-112.053511,0,0
614,10795,"ROOSEVELT ST & 25TH PL",,33.458494,-112.027150,0,0
615,10787,"ROOSEVELT ST & 11TH ST",,33.458599,-112.058010,0,0
616,10788,"ROOSEVELT ST & 12TH ST",,33.458585,-112.056003,0,0
617,10789,"ROOSEVELT ST & 14TH ST",,33.458599,-112.051703,0,0
618,10790,"ROOSEVELT ST & 16TH ST",,33.458629,-112.046802,0,0
619,10791,"ROOSEVELT ST & 18TH ST",,33.458492,-112.042210,0,0
620,10792,"ROOSEVELT ST & 20TH ST",,33.458492,-112.038209,0,0
621,10793,"ROOSEVELT ST & 22ND PL",,33.458492,-112.033006,0,0
622,10794,"ROOSEVELT ST & 24TH ST",,33.458492,-112.029508,0,0
623,18063,"ROOSEVELT ST & 28TH ST",,33.458456,-112.021005,0,0
624,10798,"ROOSEVELT ST & 30TH ST",,33.458464,-112.016715,0,0
625,10799,"ROOSEVELT ST & 31ST ST",,33.458456,-112.014709,0,0
627,10785,"ROOSEVELT ST & 7TH ST",,33.458574,-112.064494,0,0
628,11393,"ROOSEVELT ST & 82ND ST",,33.458423,-111.904486,0,0
629,10786,"ROOSEVELT ST & 9TH ST",,33.458610,-112.061905,0,0
630,10783,"ROOSEVELT ST & CENTRAL AVE",,33.458615,-112.073503,0,0
631,11392,"ROOSEVELT ST & HAYDEN RD",,33.458440,-111.908269,0,0
634,10796,"ROOSEVELT ST & 27TH PL",,33.458486,-112.022834,0,0
635,10784,"ROOSEVELT ST & 3RD ST",,33.458596,-112.070195,0,0
637,11394,"ROOSEVELT ST & GRANITE REEF RD",,33.458467,-111.901811,0,0
640,12415,"SHEA BLVD & 46TH ST",,33.582615,-111.981823,0,0
641,15649,"SHEA BLVD & 100TH ST",,33.582292,-111.864708,0,0
642,15645,"E SHEA BLVD & LOOP 101",,33.582341,-111.889311,0,0
643,15651,"SHEA BLVD & 110TH ST",,33.582349,-111.843208,0,0
644,15652,"SHEA BLVD & 114TH ST",,33.582292,-111.834509,0,0
645,16917,"SHEA BLVD & 124TH ST",,33.582303,-111.812810,0,0
646,16918,"SHEA BLVD & 130TH ST",,33.582319,-111.799715,0,0
647,16919,"SHEA BLVD & 136TH ST",,33.582314,-111.786505,0,0
649,12409,"SHEA BLVD & 35TH ST",,33.582423,-112.007243,0,0
650,13350,"SHEA BLVD & 36TH ST",,33.582549,-112.003810,0,0
652,12411,"SHEA BLVD & 38TH ST",,33.582571,-111.999717,0,0
654,12412,"SHEA BLVD & 40TH ST",,33.582607,-111.995204,0,0
655,12413,"SHEA BLVD & 42ND ST",,33.582621,-111.990497,0,0
656,12414,"SHEA BLVD & 44TH ST",,33.582590,-111.986205,0,0
657,16907,"SHEA BLVD & 51ST PL",,33.582555,-111.970318,0,0
658,16908,"SHEA BLVD & 54TH ST",,33.582525,-111.964211,0,0
659,15634,"SHEA BLVD & 56TH ST",,33.582514,-111.960214,0,0
660,15635,"SHEA BLVD & 58TH ST",,33.582382,-111.955994,0,0
661,15636,"SHEA BLVD & 60TH PL",,33.582215,-111.950701,0,0
662,15637,"SHEA BLVD & 64TH ST",,33.581938,-111.942685,0,0
663,15638,"SHEA BLVD & 68TH ST",,33.581993,-111.935707,0,0
664,15639,"SHEA BLVD & 70TH ST",,33.581993,-111.929776,0,0
665,15643,"SHEA BLVD & 84TH ST",,33.581793,-111.899309,0,0
667,15647,"SHEA BLVD & 92ND ST",,33.582404,-111.882011,0,0
668,15648,"SHEA BLVD & 96TH ST",,33.582401,-111.873514,0,0
669,15642,"SHEA BLVD & HAYDEN RD",,33.581790,-111.907506,0,0
670,15641,"SHEA BLVD & MILLER RD",,33.581985,-111.917307,0,0
671,15640,"SHEA BLVD & SCOTTSDALE RD",,33.581996,-111.925217,0,0
672,16906,"SHEA BLVD & TATUM BLVD",,33.582585,-111.976692,0,0
673,15650,"SHEA BLVD & VIA LINDA",,33.582292,-111.851508,0,0
674,12408,"SHEA BLVD & 33RD ST",,33.582429,-112.011516,0,0
676,11004,"SKY HARBOR AIRPORT TERMINAL 2",,33.436328,-112.014199,0,0
677,11005,"SKY HARBOR AIRPORT TERMINAL 3 NORTH CURB",,33.435819,-112.006190,0,0
678,11006,"SKY HARBOR AIRPORT TERMINAL 4 NORTH CURB",,33.436011,-111.997255,0,0
680,13931,"SOUTHERN AVE & 4TH ST",,33.392133,-112.068793,0,0
681,13995,"SOUTHERN AVE & SOLOMON",,33.393260,-111.809495,0,0
682,14019,"SOUTHERN AVE & MALL ENTRANCE EAST",,33.393841,-111.688709,0,0
683,14018,"SOUTHERN AVE & MALL ENTRANCE WEST",,33.393838,-111.692822,0,0
684,13934,"SOUTHERN AVE & 12TH ST",,33.392155,-112.055713,0,0
685,13935,"SOUTHERN AVE & 13TH PL",,33.392358,-112.052306,0,0
686,13936,"SOUTHERN AVE & 16TH ST",,33.392659,-112.047003,0,0
687,13937,"SOUTHERN AVE & 18TH ST",,33.392739,-112.041510,0,0
688,13938,"SOUTHERN AVE & 20TH ST",,33.392733,-112.038304,0,0
689,13939,"SOUTHERN AVE & 22ND ST",,33.392898,-112.033807,0,0
690,13940,"SOUTHERN AVE & 24TH ST",,33.393051,-112.029511,0,0
691,14002,"SOUTHERN AVE & 24TH ST",,33.393492,-111.779507,0,0
692,13941,"SOUTHERN AVE & 26TH ST",,33.393279,-112.025004,0,0
693,13942,"SOUTHERN AVE & 28TH ST",,33.393471,-112.020806,0,0
694,13943,"SOUTHERN AVE & 30TH ST",,33.393728,-112.016501,0,0
695,13944,"SOUTHERN AVE & 32ND ST",,33.392427,-112.012007,0,0
696,14005,"SOUTHERN AVE & 32ND ST",,33.393531,-111.760710,0,0
697,13946,"SOUTHERN AVE & 36TH ST",,33.392479,-112.003808,0,0
698,13947,"SOUTHERN AVE & 38TH ST",,33.392525,-111.999514,0,0
699,14008,"SOUTHERN AVE & 39TH ST",,33.393566,-111.747311,0,0
700,13948,"SOUTHERN AVE & 40TH ST",,33.392492,-111.994808,0,0
701,13950,"SOUTHERN AVE & 44TH ST",,33.392632,-111.985763,0,0
702,13951,"SOUTHERN AVE & 46TH ST",,33.392577,-111.982709,0,0
703,14014,"SOUTHERN AVE & 54TH ST",,33.393693,-111.714008,0,0
704,13932,"SOUTHERN AVE & 7TH ST",,33.392079,-112.064015,0,0
705,13933,"SOUTHERN AVE & 9TH ST",,33.392076,-112.059804,0,0
706,13968,"SOUTHERN AVE & BUTTE AVE",,33.392862,-111.910802,0,0
707,13930,"SOUTHERN AVE & CENTRAL AVE",,33.392092,-112.072519,0,0
708,14001,"SOUTHERN AVE & CHESTNUT",,33.393498,-111.783505,0,0
709,13962,"SOUTHERN AVE & COLLEGE AVE",,33.392794,-111.934208,0,0
710,13971,"SOUTHERN AVE & COUNTRY CLUB WY",,33.392840,-111.899811,0,0
711,13997,"SOUTHERN AVE & DORAN",,33.393292,-111.801706,0,0
712,13966,"SOUTHERN AVE & DORSEY LN",,33.392791,-111.917309,0,0
713,13976,"SOUTHERN AVE & EVERGREEN RD",,33.392917,-111.882332,0,0
714,13975,"SOUTHERN AVE & GEORGE DR",,33.392829,-111.887313,0,0
715,14000,"SOUTHERN AVE & GILBERT RD",,33.393429,-111.787708,0,0
716,14011,"SOUTHERN AVE & GREENFIELD RD",,33.393586,-111.736011,0,0
717,13999,"SOUTHERN AVE & HALL",,33.393350,-111.792810,0,0
718,13998,"SOUTHERN AVE & HARRIS DR",,33.393325,-111.796211,0,0
719,13993,"SOUTHERN AVE & HOBSON",,33.393191,-111.818007,0,0
720,13994,"SOUTHERN AVE & HORNE",,33.393227,-111.813509,0,0
721,14016,"SOUTHERN AVE & LEISURE WORLD BLVD",,33.393797,-111.701504,0,0
722,16466,"SOUTHERN AVE & LINDSAY RD",,33.393517,-111.770514,0,0
723,13969,"SOUTHERN AVE & MCCLINTOCK DR",,33.392851,-111.908508,0,0
724,13992,"SOUTHERN AVE & MESA DR",,33.393254,-111.822213,0,0
725,13960,"SOUTHERN AVE & MILL AVE",,33.392791,-111.939207,0,0
726,14010,"SOUTHERN AVE & NORFOLK",,33.393654,-111.741021,0,0
727,13967,"SOUTHERN AVE & OAK ST",,33.392791,-111.914808,0,0
728,13991,"SOUTHERN AVE & PASADENA",,33.393224,-111.826004,0,0
729,13990,"SOUTHERN AVE & PIMA",,33.393249,-111.829214,0,0
730,13974,"SOUTHERN AVE & PRICE RD",,33.392903,-111.889717,0,0
731,13972,"SOUTHERN AVE & RIVER DR",,33.392851,-111.895498,0,0
732,13964,"SOUTHERN AVE & RURAL RD",,33.392873,-111.925499,0,0
733,14015,"SOUTHERN AVE & SLATER",,33.393736,-111.708299,0,0
734,13996,"SOUTHERN AVE & STAPLEY DR",,33.393232,-111.805002,0,0
735,14017,"SOUTHERN AVE & SUPERSTITION SPRING BLVD",,33.393819,-111.697207,0,0
736,13965,"SOUTHERN AVE & TERRACE RD",,33.392791,-111.922809,0,0
737,14007,"SOUTHERN AVE & VAL VISTA DR",,33.393556,-111.752812,0,0
738,13945,"SOUTHERN AVE -- 32ND ST & 34TH PL",,33.392383,-112.008503,0,0
739,14006,"SOUTHERN AVE -- HELMS & VAL VISTA DR",,33.393561,-111.757299,0,0
740,13963,"SOUTHERN AVE -- MCALLISTER AVE & RURAL RD",,33.392857,-111.928703,0,0
741,13961,"SOUTHERN AVE -- MILL AVE & COLLEGE AVE",,33.392744,-111.936808,0,0
742,14012,"SOUTHERN AVE & ROANOKE",,33.393714,-111.727202,0,0
743,14004,"SOUTHERN AVE -- ROBIN LN & LOS ALAMOS",,33.393528,-111.766303,0,0
744,14009,"SOUTHERN AVE & NASSAU",,33.393632,-111.745009,0,0
745,13949,"SOUTHERN AVE & 42ND ST",,33.392607,-111.990024,0,0
746,13970,"SOUTHERN AVE & LOS FELIZ DR",,33.392794,-111.904206,0,0
747,13973,"SOUTHERN AVE & PRICE RD",,33.392890,-111.892707,0,0
748,14013,"SOUTHERN AVE & ST PAUL",,33.393693,-111.723306,0,0
749,16946,"SOUTHSHORE DR & RURAL RD",,33.371858,-111.927758,0,0
750,16947,"SOUTHSHORE DR & LAKESHORE DR",,33.371181,-111.920533,0,0
751,16948,"SOUTHSHORE DR & MCCLINTOCK DR",,33.372085,-111.912049,0,0
754,11902,"THOMAS RD & 18TH ST",,33.479995,-112.043307,0,0
755,11926,"THOMAS RD & 61ST PL",,33.479992,-111.948507,0,0
756,11929,"THOMAS RD & 70TH ST",,33.480192,-111.930006,0,0
757,11924,"THOMAS RD & TANGERINE LN",,33.479992,-111.956307,0,0
758,11931,"THOMAS RD & CIVIC CENTER PLZ",,33.480192,-111.921809,0,0
759,11936,"THOMAS RD & 81ST WY",,33.480192,-111.906010,0,0
760,10882,"THOMAS RD & 14TH ST",,33.480102,-112.051699,0,0
762,18031,"THOMAS RD & 16TH ST",,33.480123,-112.047007,0,0
763,11905,"THOMAS RD & 22ND ST",,33.479992,-112.033806,0,0
764,11906,"THOMAS RD & 24TH ST",,33.479992,-112.029508,0,0
765,11907,"THOMAS RD & 26TH ST",,33.480192,-112.025306,0,0
766,11908,"THOMAS RD & 28TH ST",,33.480192,-112.021005,0,0
767,11909,"THOMAS RD & 30TH ST",,33.480293,-112.016808,0,0
768,11910,"THOMAS RD & 32ND ST",,33.480192,-112.012006,0,0
769,11911,"THOMAS RD & 34TH ST",,33.480291,-112.008210,0,0
770,11912,"THOMAS RD & 36TH ST",,33.480359,-112.003047,0,0
771,11913,"THOMAS RD & 38TH ST",,33.480195,-111.998707,0,0
772,11898,"THOMAS RD & 3RD ST",,33.479992,-112.068506,0,0
773,11914,"THOMAS RD & 40TH ST",,33.480293,-111.994707,0,0
774,11915,"THOMAS RD & 42ND ST",,33.480192,-111.990806,0,0
775,11916,"THOMAS RD & 44TH ST",,33.479992,-111.986207,0,0
776,11918,"THOMAS RD & 46TH ST",,33.479992,-111.982008,0,0
777,11919,"THOMAS RD & 48TH ST",,33.480006,-111.977536,0,0
778,11921,"THOMAS RD & 52ND ST",,33.479962,-111.969005,0,0
779,11922,"THOMAS RD & 54TH ST",,33.479795,-111.964705,0,0
780,11923,"THOMAS RD & 56TH ST",,33.479792,-111.960309,0,0
781,11925,"THOMAS RD & 60TH ST",,33.479992,-111.951710,0,0
782,11927,"THOMAS RD & 64TH ST",,33.480071,-111.942897,0,0
784,11899,"THOMAS RD & 7TH ST",,33.479992,-112.064508,0,0
785,11897,"THOMAS RD & CENTRAL AVE",,33.480159,-112.073477,0,0
786,11308,"THOMAS RD & DAYTON ST",,33.480121,-112.058966,0,0
787,11937,"THOMAS RD & GRANITE REEF RD",,33.480244,-111.899668,0,0
788,11935,"THOMAS RD & HAYDEN RD",,33.480260,-111.908002,0,0
789,11932,"THOMAS RD & MILLER RD",,33.480244,-111.916844,0,0
790,11930,"THOMAS RD & SCOTTSDALE RD",,33.480192,-111.925508,0,0
791,18076,"THOMAS RD & ST THERESA",,33.479792,-111.972008,0,0
792,11903,"THOMAS RD & 20TH ST",,33.479992,-112.040209,0,0
793,11917,"THOMAS RD & 45TH ST",,33.479992,-111.984206,0,0
794,11928,"THOMAS RD -- 64TH ST & 67TH PL",,33.480123,-111.936549,0,0
795,11904,"THOMAS RD & 21ST ST",,33.480178,-112.037008,0,0
796,11933,"THOMAS RD & 78TH ST",,33.480192,-111.913507,0,0
797,781,"THOMAS RD & HAYDEN RD",,33.480269,-111.909671,0,0
798,11900,"THOMAS RD & 12TH ST",,33.480123,-112.056512,0,0
799,12469,"THUNDERBIRD RD & 42ND PL",,33.611687,-111.990206,0,0
800,16325,"THUNDERBIRD RD & POINTE GOLF CLUB DR",,33.604992,-112.055007,0,0
801,16326,"THUNDERBIRD RD & 32ND ST",,33.611473,-112.012510,0,0
802,16327,"THUNDERBIRD RD & 36TH ST",,33.613166,-112.003713,0,0
803,16328,"THUNDERBIRD RD & 37TH PL",,33.612391,-112.000774,0,0
804,16323,"THUNDERBIRD RD & 3RD ST",,33.607535,-112.069306,0,0
805,12468,"THUNDERBIRD RD & 40TH ST",,33.611769,-111.995203,0,0
806,12470,"THUNDERBIRD RD & 44TH ST",,33.611615,-111.986388,0,0
807,12471,"THUNDERBIRD RD & 46TH ST",,33.611541,-111.982079,0,0
808,16324,"THUNDERBIRD RD & 7TH ST",,33.607535,-112.064318,0,0
809,16322,"THUNDERBIRD RD & CENTRAL AVE",,33.607527,-112.074261,0,0
811,12443,"UNION HILLS DR & 45TH WY",,33.655076,-111.981504,0,0
813,16796,"UNION HILLS DR & 12TH ST",,33.654690,-112.056508,0,0
814,16797,"UNION HILLS DR & 16TH ST",,33.654791,-112.047805,0,0
815,16799,"UNION HILLS DR & 20TH ST",,33.654791,-112.038808,0,0
816,16800,"UNION HILLS DR & 22ND ST",,33.654884,-112.035475,0,0
817,16802,"UNION HILLS DR & 26TH ST",,33.654955,-112.025439,0,0
818,16803,"UNION HILLS DR & 28TH ST",,33.654947,-112.021499,0,0
819,16804,"UNION HILLS DR & 31ST ST",,33.654975,-112.015720,0,0
821,16805,"UNION HILLS DR & 34TH ST",,33.655079,-112.008710,0,0
822,16806,"UNION HILLS DR & 36TH ST",,33.654991,-112.004705,0,0
823,12440,"UNION HILLS DR & 40TH ST",,33.655076,-111.995509,0,0
824,12442,"UNION HILLS DR & 44TH ST",,33.655145,-111.985499,0,0
825,16794,"UNION HILLS DR & 4TH ST",,33.654692,-112.068708,0,0
826,10551,"UNION HILLS DR & 7TH ST",,33.654739,-112.064974,0,0
828,16795,"UNION HILLS DR & 9TH ST",,33.654739,-112.060790,0,0
829,16801,"UNION HILLS DR & CAVE CREEK RD",,33.654791,-112.030209,0,0
830,16793,"UNION HILLS DR & CENTRAL AVE",,33.654492,-112.073710,0,0
831,16798,"UNION HILLS DR & 19TH ST",,33.654794,-112.043805,0,0
832,12107,"UNIVERSITY DR & CRESTON",,33.422693,-111.761007,0,0
833,12110,"UNIVERSITY DR & MAPLE",,33.422679,-111.748016,0,0
834,12111,"UNIVERSITY DR & NASSAU",,33.422687,-111.744210,0,0
835,12112,"UNIVERSITY DR -- NORFOLK & GREENFIELD RD",,33.422693,-111.740008,0,0
836,12094,"UNIVERSITY DR & OLIVE",,33.422194,-111.817808,0,0
837,12116,"UNIVERSITY DR & ROANOKE",,33.422750,-111.728925,0,0
838,12117,"UNIVERSITY DR & ROANOKE",,33.422693,-111.726307,0,0
839,17089,"UNIVERSITY DR & ST PAUL",,33.422693,-111.721510,0,0
840,12044,"UNIVERSITY DR & 36TH ST",,33.420794,-112.002808,0,0
841,12061,"UNIVERSITY DR & COLLEGE AVE",,33.421838,-111.934924,0,0
842,12102,"UNIVERSITY DR & 22ND PL",,33.422493,-111.782507,0,0
843,12103,"UNIVERSITY DR & 25TH ST",,33.422493,-111.777208,0,0
844,12120,"UNIVERSITY DR & 54TH ST",,33.422693,-111.714809,0,0
845,12121,"UNIVERSITY DR & 56TH ST",,33.422693,-111.709809,0,0
846,12122,"UNIVERSITY DR & 58TH ST",,33.422693,-111.705708,0,0
847,12124,"UNIVERSITY DR & 64TH ST",,33.422838,-111.693008,0,0
848,12091,"UNIVERSITY DR & CENTER ST",,33.422263,-111.830992,0,0
849,12101,"UNIVERSITY DR & GILBERT RD",,33.422493,-111.787208,0,0
850,12114,"UNIVERSITY DR & GREENFIELD RD",,33.422693,-111.736009,0,0
851,12100,"UNIVERSITY DR & HALL ST",,33.422479,-111.793187,0,0
852,12092,"UNIVERSITY DR & HIBBERT",,33.422194,-111.825809,0,0
853,12119,"UNIVERSITY DR & HIGLEY RD",,33.422693,-111.718709,0,0
854,12095,"UNIVERSITY DR & HORNE",,33.422274,-111.813715,0,0
855,12099,"UNIVERSITY DR & HUNT DR",,33.422293,-111.796810,0,0
856,12098,"UNIVERSITY DR & LAZONA DR",,33.422293,-111.800707,0,0
857,12105,"UNIVERSITY DR & LINDSAY RD",,33.422493,-111.770208,0,0
858,12106,"UNIVERSITY DR & LOS ALAMOS",,33.422493,-111.765707,0,0
859,18275,"UNIVERSITY DR & MESA DR",,33.422243,-111.822305,0,0
860,12096,"UNIVERSITY DR & MILLER ST",,33.422293,-111.809207,0,0
861,12123,"UNIVERSITY DR & RECKER RD",,33.422805,-111.701680,0,0
862,12097,"UNIVERSITY DR & STAPLEY DR",,33.422293,-111.805008,0,0
863,12109,"UNIVERSITY DR & VAL VISTA DR",,33.422665,-111.753013,0,0
864,12104,"UNIVERSITY DR & YALE",,33.422493,-111.773307,0,0
865,12045,"UNIVERSITY DR & 38TH ST",,33.421791,-111.999206,0,0
866,11403,"UNIVERSITY DR & 40TH ST",,33.421693,-111.994307,0,0
867,12047,"UNIVERSITY DR & 42ND ST",,33.421693,-111.990810,0,0
868,12048,"UNIVERSITY DR & 44TH ST",,33.421780,-111.986602,0,0
869,12049,"UNIVERSITY DR & 47TH ST",,33.421693,-111.980708,0,0
870,12066,"UNIVERSITY DR & DORSEY LN",,33.421904,-111.917315,0,0
871,12074,"UNIVERSITY DR & EVERGREEN RD",,33.421989,-111.882859,0,0
873,12067,"UNIVERSITY DR & MCCLINTOCK DR",,33.421901,-111.908224,0,0
874,12068,"UNIVERSITY DR & MELODY LN",,33.421947,-111.905202,0,0
875,12059,"UNIVERSITY DR & MILL AVE",,33.421819,-111.939343,0,0
876,12060,"UNIVERSITY DR & MYRTLE AVE",,33.421830,-111.937314,0,0
877,12072,"UNIVERSITY DR & PRICE RD",,33.421975,-111.889715,0,0
878,12070,"UNIVERSITY DR & RIVER DR",,33.422002,-111.895798,0,0
879,12064,"UNIVERSITY DR & RURAL RD",,33.421939,-111.924806,0,0
880,12065,"UNIVERSITY DR & ATHLETES PL",,33.421939,-111.922219,0,0
881,12043,"UNIVERSITY DR -- ELWOOD ST & 35TH ST",,33.417292,-112.006011,0,0
882,12108,"UNIVERSITY DR -- CRESTON & VAL VISTA DR",,33.422654,-111.756766,0,0
883,12062,"UNIVERSITY DR & PALO VERDE DORMS",,33.421876,-111.932631,0,0
884,12113,"UNIVERSITY DR & GREENFIELD RD",,33.422490,-111.738010,0,0
885,12075,"UNIVERSITY DR & MAY",,33.422019,-111.879822,0,0
886,12071,"UNIVERSITY DR & PRICE RD",,33.421980,-111.892505,0,0
887,12069,"UNIVERSITY DR & SMITH RD",,33.422013,-111.901199,0,0
888,12073,"UNIVERSITY DR & GEORGE DR",,33.421994,-111.887567,0,0
890,10358,"VAN BUREN ST & 36TH ST",,33.451192,-112.003707,0,0
891,10359,"VAN BUREN ST & 38TH ST",,33.451186,-111.999506,0,0
892,10362,"VAN BUREN ST & 41ST PL",,33.450994,-111.991507,0,0
893,10366,"VAN BUREN ST & 53RD ST",,33.450866,-111.967012,0,0
894,10345,"VAN BUREN ST & 11TH ST",,33.451194,-112.058308,0,0
895,10346,"VAN BUREN ST & 14TH ST",,33.451293,-112.051708,0,0
896,10347,"VAN BUREN ST & 16TH ST",,33.451290,-112.047008,0,0
897,10348,"VAN BUREN ST & 18TH ST",,33.451192,-112.042708,0,0
898,10349,"VAN BUREN ST & 19TH ST",,33.451293,-112.040808,0,0
899,18284,"VAN BUREN ST & 1ST ST",,33.451318,-112.072245,0,0
900,10350,"VAN BUREN ST & 20TH ST",,33.451192,-112.038310,0,0
901,10351,"VAN BUREN ST & 22ND ST",,33.451293,-112.034009,0,0
902,10352,"VAN BUREN ST & 24TH ST",,33.451192,-112.029508,0,0
903,10354,"VAN BUREN ST & 28TH ST",,33.451192,-112.021209,0,0
904,10355,"VAN BUREN ST & 30TH ST",,33.451192,-112.017008,0,0
905,10356,"VAN BUREN ST & 32ND ST",,33.451194,-112.012305,0,0
906,10213,"VAN BUREN ST & 3RD ST",,33.451315,-112.069558,0,0
907,10361,"VAN BUREN ST & 40TH ST",,33.450992,-111.994705,0,0
908,10363,"VAN BUREN ST & 44TH ST",,33.451035,-111.986317,0,0
909,10364,"VAN BUREN ST & 48TH ST",,33.451008,-111.978271,0,0
910,10367,"VAN BUREN ST & 56TH ST",,33.450918,-111.960219,0,0
911,10214,"VAN BUREN ST & 5TH ST",,33.451293,-112.067194,0,0
912,10343,"VAN BUREN ST & 7TH ST",,33.451279,-112.064826,0,0
913,10344,"VAN BUREN ST & 9TH ST",,33.451282,-112.061617,0,0
914,18199,"VAN BUREN ST & CENTRAL AVE",,33.451323,-112.073407,0,0
915,10289,"VAN BUREN ST & CENTRAL AVE",,33.449769,-112.348811,0,0
916,10353,"VAN BUREN ST -- 25TH ST & 28TH ST",,33.451252,-112.025500,0,0
917,10357,"VAN BUREN ST -- 32ND PL & 35TH ST",,33.451192,-112.008206,0,0
918,18309,"VAN BUREN ST -- 38TH ST & 40TH ST",,33.451194,-111.997506,0,0
919,10365,"VAN BUREN ST -- 48TH ST & 52ND ST",,33.450874,-111.974204,0,0
920,10368,"VAN BUREN ST -- 56TH ST & PRIEST DR",,33.450827,-111.957800,0,0
921,10294,"VAN BUREN ST -- LINKS RD & 115TH AVE",,33.449531,-112.309460,0,0
922,10292,"VAN BUREN ST & ELISEO C FELIX JR WY",,33.449720,-112.337205,0,0
923,10290,"VAN BUREN ST & DYSART RD",,33.449783,-112.342016,0,0
924,15115,"VIA DE VENTURA & HAYDEN RD",,33.554105,-111.897482,0,0
925,16913,"VIA LINDA & MOUNTAIN VIEW RD",,33.574013,-111.864218,0,0
927,16912,"VIA LINDA & 100TH ST",,33.572413,-111.867759,0,0
928,16914,"VIA LINDA & 104TH ST",,33.574405,-111.856842,0,0
929,16915,"VIA LINDA & 105TH ST",,33.575353,-111.854088,0,0
934,15656,"VIA LINDA & 124TH ST",,33.589493,-111.812809,0,0
935,15657,"VIA LINDA & 126TH ST",,33.589490,-111.808306,0,0
936,15659,"VIA LINDA & 129TH WY",,33.589493,-111.800707,0,0
937,15660,"VIA LINDA & 131ST PL",,33.589545,-111.797229,0,0
940,16911,"VIA LINDA & 96TH ST",,33.571511,-111.873505,0,0
944,15658,"VIA LINDA & 128TH ST",,33.589548,-111.806140,0,0
945,17025,"WARNER ELLIOT LP & AHWATUKEE DR",,33.334826,-111.991956,0,0
947,17024,"WARNER ELLIOT LP & EQUESTRIAN TRL",,33.337986,-111.993801,0,0
948,17020,"WARNER ELLIOT LP & JICARILLA ST",,33.347031,-111.990545,0,0
949,17022,"WARNER ELLIOT LP & KIOWA ST",,33.343291,-111.993658,0,0
950,17021,"WARNER ELLIOT LP & WALATOWA ST",,33.345647,-111.992145,0,0
951,17026,"WARNER ELLIOT LP & 44TH ST",,33.331820,-111.987812,0,0
952,17023,"WARNER ELLIOT LP & MANDAN ST",,33.341682,-111.994117,0,0
955,17027,"WARNER RD & 48TH ST",,33.330853,-111.980223,0,0
956,15230,"WARNER RD & FAIRFIELD DR",,33.334659,-111.900008,0,0
957,17034,"WARNER RD & FOREST AVE",,33.334503,-111.933810,0,0
958,16284,"WARNER RD & GILBERT RD",,33.335363,-111.789305,0,0
961,15228,"WARNER RD & LOS FELIZ DR",,33.334511,-111.905816,0,0
962,15227,"WARNER RD & MCCLINTOCK DR",,33.334492,-111.910710,0,0
967,15229,"WARNER RD & KENWOOD LN",,33.334579,-111.903312,0,0
968,10228,"WASHINGTON ST & 27TH ST",,33.447991,-112.023309,0,0
969,10229,"WASHINGTON ST & 28TH ST",,33.447994,-112.021007,0,0
970,10230,"WASHINGTON ST & 30TH ST",,33.447991,-112.016806,0,0
971,10231,"WASHINGTON ST & 32ND ST",,33.447991,-112.012511,0,0
972,10232,"WASHINGTON ST & 34TH ST",,33.447983,-112.006816,0,0
973,10234,"WASHINGTON ST & 38TH ST",,33.447794,-111.998307,0,0
974,10235,"WASHINGTON ST & 40TH ST",,33.447912,-111.994732,0,0
976,10237,"WASHINGTON ST & 44TH ST",,33.447955,-111.986826,0,0
977,10238,"WASHINGTON ST & 48TH ST",,33.447158,-111.978008,0,0
978,10239,"WASHINGTON ST -- 48TH ST & 51ST ST",,33.446572,-111.973373,0,0
979,10240,"WASHINGTON ST & 54TH PL",,33.445744,-111.965725,0,0
980,10233,"WASHINGTON ST & 36TH ST",,33.447969,-112.003210,0,0
983,16137,"WESTERN AVE & 3RD ST",,33.435194,-112.345707,0,0
986,11715,"METRO CENTER TRANSIT CENTER",,33.572956,-112.123527,0,0
989,12675,"83RD AVE & CHEERY LYNN RD",,33.483683,-112.237698,0,0
990,15480,"NORTH ENTRANCE -- STEWART & GROVE AVE",,33.391243,-111.859945,0,0
991,14368,"ARROWHEAD MALL NORTH MALL ENTRANCE -- 75",,33.643216,-112.225162,1,0
995,17220,"MILL AVE & RIO SALADO PKWY",,33.429308,-111.940110,0,0
999,10119,"SUNNYSLOPE TRANSIT CENTER  & -- DUNLAP AVE & TOWNLEY AVE",,33.567157,-112.069168,0,0
1005,14159,"1ST ST & HARDY DR",,33.429042,-111.951713,0,0
1006,14160,"1ST ST & MCKEMY ST",,33.429053,-111.949706,0,0
1007,14161,"1ST ST & ROOSEVELT ST",,33.429058,-111.947421,0,0
1008,14162,"1ST ST & FARMER AVE",,33.429050,-111.944696,0,0
1009,17371,"3RD PL & -- MACDONALD & DREW ST",,33.421509,-111.833500,0,0
1012,13283,"5TH ST & ASH AVE",,33.425408,-111.942831,0,0
1013,13284,"5TH ST & MAPLE AVE",,33.425419,-111.941110,0,0
1018,15234,"ALICE AVE & 66TH DR",,33.563521,-112.201018,0,0
1019,13532,"ATLANTA AVE & 11TH AVE",,33.400023,-112.085709,0,0
1020,14926,"BASELINE RD & 19TH AVE",,33.377667,-112.098029,0,0
1021,11503,"BASELINE RD & 35TH AVE",,33.377561,-112.132004,0,0
1022,10819,"BASELINE RD & 7TH AVE",,33.377637,-112.082537,0,0
1023,14950,"BASELINE RD & TERRY LN",,33.378144,-111.955549,0,0
1024,14928,"BASELINE RD & 15TH AVE",,33.377632,-112.091302,0,0
1025,14722,"BASELINE RD & 27TH AVE",,33.377610,-112.117703,0,0
1026,11505,"BASELINE RD & 29TH AVE",,33.377593,-112.121401,0,0
1027,10760,"BASELINE RD & 4TH AVE",,33.377635,-112.078636,0,0
1028,13303,"BASELINE RD & 48TH ST",,33.378114,-111.977709,0,0
1029,14949,"BASELINE RD & BECK AVE",,33.378144,-111.959316,0,0
1030,14968,"BASELINE RD & DOBSON RD",,33.378448,-111.877035,0,0
1032,14225,"BASELINE RD & KYRENE RD",,33.378139,-111.945510,0,0
1036,14947,"BASELINE RD & PRIEST DR",,33.378155,-111.962318,0,0
1040,16585,"BELL RD & 41ST AVE",,33.639191,-112.146307,0,0
1041,16597,"BELL RD & 11TH AVE",,33.639991,-112.086707,0,0
1042,16596,"BELL RD & 15TH AVE",,33.639994,-112.091009,0,0
1043,16595,"BELL RD & 17TH AVE",,33.639994,-112.095008,0,0
1044,16594,"BELL RD & 19TH AVE",,33.639794,-112.098708,0,0
1045,16593,"BELL RD & 21ST AVE",,33.639791,-112.102707,0,0
1046,16592,"BELL RD & 23RD AVE",,33.639826,-112.107502,0,0
1047,16591,"BELL RD & 29TH AVE",,33.639720,-112.120818,0,0
1048,16590,"BELL RD & 31ST AVE",,33.639489,-112.124509,0,0
1049,16589,"BELL RD & 33RD DR",,33.639492,-112.129505,0,0
1050,16588,"BELL RD & 35TH AVE",,33.639292,-112.133808,0,0
1051,16587,"BELL RD & 37TH AVE",,33.639292,-112.138205,0,0
1052,16586,"BELL RD & 39TH AVE",,33.639292,-112.142708,0,0
1053,16599,"BELL RD & 3RD AVE",,33.639991,-112.078007,0,0
1054,16584,"BELL RD & 43RD AVE",,33.639248,-112.151036,0,0
1055,16472,"BELL RD & 47TH AVE",,33.638991,-112.160007,0,0
1056,16471,"BELL RD & 49TH AVE",,33.638960,-112.164448,0,0
1057,16470,"BELL RD & 51ST AVE",,33.638793,-112.168506,0,0
1058,16583,"BELL RD & 53RD AVE",,33.638793,-112.172508,0,0
1059,16581,"BELL RD & 57TH AVE",,33.638692,-112.180808,0,0
1060,16580,"BELL RD & 59TH AVE",,33.638708,-112.185317,0,0
1061,16579,"BELL RD & 61ST AVE",,33.638292,-112.190307,0,0
1062,16578,"BELL RD & 63RD AVE",,33.638292,-112.194507,0,0
1063,16576,"BELL RD & 67TH AVE",,33.638193,-112.200707,0,0
1064,14371,"BELL RD & 69TH AVE",,33.638210,-112.206795,0,0
1065,14370,"BELL RD & 73RD AVE",,33.638119,-112.215769,0,0
1066,14369,"BELL RD & 75TH AVE",,33.638097,-112.220059,0,0
1067,16598,"BELL RD & 7TH AVE",,33.639991,-112.082306,0,0
1068,16473,"BELL RD & PARK PL",,33.639188,-112.155217,0,0
1069,16582,"BELL RD & TALAVI BLVD",,33.638692,-112.177207,0,0
1070,16577,"BELL RD -- 67TH AVE & 63RD AVE",,33.638292,-112.198006,0,0
1071,13845,"BETHANY HOME RD & 17TH AVE",,33.523957,-112.095250,0,0
1072,13847,"BETHANY HOME RD & 11TH AVE",,33.523844,-112.086196,0,0
1073,13846,"BETHANY HOME RD & 15TH AVE",,33.523932,-112.093084,0,0
1074,13844,"BETHANY HOME RD & 19TH AVE",,33.524006,-112.099174,0,0
1075,13843,"BETHANY HOME RD & 21ST AVE",,33.523976,-112.103312,0,0
1076,13842,"BETHANY HOME RD & 23RD AVE",,33.523962,-112.107711,0,0
1077,13840,"BETHANY HOME RD & 27TH AVE",,33.523921,-112.115712,0,0
1078,13839,"BETHANY HOME RD & 29TH AVE",,33.523888,-112.120811,0,0
1079,13838,"BETHANY HOME RD & 31ST AVE",,33.523897,-112.125206,0,0
1080,13837,"BETHANY HOME RD & 33RD AVE",,33.523875,-112.129200,0,0
1081,12354,"BETHANY HOME RD & 35TH AVE",,33.523866,-112.133694,0,0
1082,13835,"BETHANY HOME RD & 37TH AVE",,33.523858,-112.138003,0,0
1083,13834,"BETHANY HOME RD & 39TH AVE",,33.523844,-112.142313,0,0
1084,13849,"BETHANY HOME RD & 3RD AVE",,33.523746,-112.077214,0,0
1085,13832,"BETHANY HOME RD & 43RD AVE",,33.523809,-112.150715,0,0
1086,13831,"BETHANY HOME RD & 45TH DR",,33.523833,-112.156316,0,0
1087,13830,"BETHANY HOME RD & 47TH AVE",,33.523828,-112.159221,0,0
1088,13829,"BETHANY HOME RD & 49TH AVE",,33.523836,-112.163396,0,0
1089,13828,"BETHANY HOME RD & 51ST AVE",,33.523847,-112.167215,0,0
1090,13825,"BETHANY HOME RD & 55TH AVE",,33.523907,-112.176822,0,0
1091,13824,"BETHANY HOME RD & 57TH AVE",,33.523932,-112.181226,0,0
1092,13823,"BETHANY HOME RD & 59TH AVE",,33.523965,-112.185499,0,0
1093,13822,"BETHANY HOME RD & 61ST AVE",,33.523902,-112.190207,0,0
1094,13821,"BETHANY HOME RD & 63RD AVE",,33.523850,-112.194853,0,0
1095,13818,"BETHANY HOME RD & 67TH AVE",,33.523751,-112.202523,0,0
1096,13848,"BETHANY HOME RD & 7TH AVE",,33.523779,-112.081714,0,0
1097,13827,"BETHANY HOME RD & 51ST AVE",,33.523842,-112.170476,0,0
1099,13833,"BETHANY HOME RD & 41ST AVE",,33.523833,-112.147233,0,0
1100,13820,"BETHANY HOME RD & 65TH AVE",,33.523795,-112.199804,0,0
1101,18194,"BETHANY HOME RD & 24TH AVE",,33.523949,-112.110709,0,0
1102,13096,"BROADWAY RD & FARMER AVE",,33.407301,-111.943723,0,0
1103,13065,"BROADWAY RD & 15TH AVE",,33.406651,-112.090220,0,0
1104,13089,"BROADWAY RD & 48TH ST",,33.407249,-111.977526,0,0
1105,10647,"BROADWAY RD & 7TH AVE",,33.406583,-112.081483,0,0
1106,13122,"BROADWAY RD & ALMA SCHOOL RD",,33.407498,-111.856214,0,0
1107,13090,"BROADWAY RD & BROADWAY FRONTAGE RD",,33.407484,-111.965171,0,0
1108,13126,"BROADWAY RD & COUNTRY CLUB DR",,33.407693,-111.840308,0,0
1109,13092,"BROADWAY RD & CUTLER DR",,33.407353,-111.958271,0,0
1110,13125,"BROADWAY RD & DATE",,33.407662,-111.843802,0,0
1111,13118,"BROADWAY RD & DOBSON RD",,33.407501,-111.873713,0,0
1112,13113,"BROADWAY RD & EL DORADO",,33.407449,-111.886720,0,0
1113,13124,"BROADWAY RD & EXTENSION RD",,33.407665,-111.848013,0,0
1114,13094,"BROADWAY RD & HARDY DR",,33.407328,-111.952005,0,0
1115,13093,"BROADWAY RD & INDUSTRIAL PARK AVE",,33.407356,-111.954312,0,0
1116,13120,"BROADWAY RD & LONGMORE",,33.407512,-111.865392,0,0
1117,13128,"BROADWAY RD & MACDONALD",,33.407728,-111.834021,0,0
1119,13091,"BROADWAY RD & PRIEST DR",,33.407366,-111.960309,0,0
1120,13127,"BROADWAY RD & ROBSON",,33.407736,-111.836578,0,0
1121,13095,"BROADWAY RD & ROOSEVELT ST",,33.407303,-111.947505,0,0
1122,13114,"BROADWAY RD & ROOSEVELT RD",,33.407435,-111.882791,0,0
1123,13119,"BROADWAY RD & SAGUARO",,33.407504,-111.867706,0,0
1124,13121,"BROADWAY RD & STANDAGE",,33.407493,-111.860708,0,0
1127,13115,"BROADWAY RD -- VALENCIA & DOBSON RD",,33.407490,-111.878240,0,0
1128,13066,"BROADWAY RD & 9TH AVE",,33.406635,-112.085145,0,0
1130,13123,"BROADWAY RD & WESTWOOD",,33.407583,-111.852811,0,0
1131,10979,"BUCKEYE RD & 31ST AVE",,33.436838,-112.125505,0,0
1132,10966,"BUCKEYE RD & 65TH AVE",,33.437068,-112.197786,0,0
1133,10987,"BUCKEYE RD & 15TH AVE",,33.436682,-112.090706,0,0
1134,10986,"BUCKEYE RD & 17TH AVE",,33.436679,-112.095205,0,0
1135,10985,"BUCKEYE RD & 19TH AVE",,33.436668,-112.099507,0,0
1136,10982,"BUCKEYE RD & 25TH AVE",,33.436690,-112.112307,0,0
1138,18167,"BUCKEYE RD & 27TH AVE",,33.436693,-112.117009,0,0
1139,10980,"BUCKEYE RD & 29TH AVE",,33.436778,-112.120810,0,0
1142,10978,"BUCKEYE RD & 33RD AVE",,33.436833,-112.129711,0,0
1143,10977,"BUCKEYE RD & 35TH AVE",,33.436822,-112.134207,0,0
1144,10976,"BUCKEYE RD & 37TH AVE",,33.436690,-112.138307,0,0
1145,10975,"BUCKEYE RD & 39TH AVE",,33.436827,-112.143102,0,0
1146,10974,"BUCKEYE RD & 41ST AVE",,33.436693,-112.147006,0,0
1147,10973,"BUCKEYE RD & 43RD AVE",,33.436693,-112.151206,0,0
1148,10972,"BUCKEYE RD & 47TH AVE",,33.436693,-112.159806,0,0
1149,10990,"BUCKEYE RD & 4TH AVE",,33.437049,-112.079262,0,0
1150,10971,"BUCKEYE RD & 51ST AVE",,33.436493,-112.168508,0,0
1151,10970,"BUCKEYE RD & 54TH AVE",,33.436693,-112.174507,0,0
1152,10969,"BUCKEYE RD & 56TH AVE",,33.436693,-112.180208,0,0
1153,10968,"BUCKEYE RD & 59TH AVE",,33.436792,-112.185706,0,0
1154,10967,"BUCKEYE RD & 63RD AVE",,33.436992,-112.194809,0,0
1155,10965,"W BUCKEYE RD & S 67TH AV",,33.437118,-112.203203,0,0
1156,10989,"BUCKEYE RD & 7TH AVE",,33.436693,-112.081807,0,0
1157,10983,"BUCKEYE RD & I-17 FWY",,33.436690,-112.107309,0,0
1158,10991,"BUCKEYE RD & CENTRAL AVE",,33.436745,-112.073620,0,0
1159,10984,"BUCKEYE RD & 21ST AVE",,33.436682,-112.104009,0,0
1160,10988,"BUCKEYE RD & 10TH AVE",,33.436720,-112.085980,0,0
1161,16045,"CACTUS RD & 37TH AVE",,33.596190,-112.137307,0,0
1162,16041,"CACTUS RD & 44TH DR",,33.596190,-112.153710,0,0
1163,16052,"CACTUS RD & 21ST AVE",,33.596294,-112.103509,0,0
1164,16051,"CACTUS RD & 23RD AVE",,33.596292,-112.107309,0,0
1165,16049,"CACTUS RD & 28TH DR",,33.596190,-112.119710,0,0
1166,10281,"CACTUS RD & 31ST AVE",,33.596193,-112.124809,0,0
1167,16047,"CACTUS RD & 33RD AVE",,33.596193,-112.129007,0,0
1168,16046,"CACTUS RD & 35TH AVE",,33.596193,-112.133208,0,0
1169,16044,"CACTUS RD & 39TH AVE",,33.596190,-112.142008,0,0
1170,16043,"CACTUS RD & 41ST AVE",,33.596190,-112.146308,0,0
1172,16042,"CACTUS RD & 43RD AVE",,33.596190,-112.150506,0,0
1173,16040,"CACTUS RD & 45TH LN",,33.596193,-112.156707,0,0
1174,16039,"CACTUS RD & 47TH AVE",,33.595993,-112.159306,0,0
1175,16038,"CACTUS RD & 49TH AVE",,33.596193,-112.163806,0,0
1176,16037,"CACTUS RD & 51ST AVE",,33.596193,-112.168007,0,0
1177,16050,"CACTUS RD & 25TH AVE",,33.596294,-112.112507,0,0
1178,13318,"CAMELBACK RD & 47TH AVE",,33.509294,-112.159709,0,0
1179,13335,"CAMELBACK RD & 11TH AVE",,33.509179,-112.086228,0,0
1180,18188,"CAMELBACK RD & 15TH AVE",,33.509236,-112.090302,0,0
1181,13333,"CAMELBACK RD & 17TH AVE",,33.509283,-112.095205,0,0
1182,11077,"CAMELBACK RD & 19TH AVE",,33.509332,-112.099315,0,0
1183,13331,"CAMELBACK RD & 21ST AVE",,33.509491,-112.103808,0,0
1184,13330,"CAMELBACK RD & 23RD AVE",,33.509294,-112.108006,0,0
1185,13328,"CAMELBACK RD & 27TH AVE",,33.509291,-112.116307,0,0
1186,13326,"CAMELBACK RD & 31ST AVE",,33.509294,-112.125007,0,0
1187,13325,"CAMELBACK RD & 33RD AVE",,33.509291,-112.129207,0,0
1188,13324,"CAMELBACK RD & 35TH AVE",,33.509294,-112.133709,0,0
1189,13323,"CAMELBACK RD & 37TH AVE",,33.509294,-112.137804,0,0
1190,13322,"CAMELBACK RD & 39TH AVE",,33.509192,-112.142305,0,0
1191,13337,"CAMELBACK RD & 3RD AVE",,33.509050,-112.077699,0,0
1192,13319,"CAMELBACK RD & 45TH AVE",,33.509291,-112.155006,0,0
1193,13317,"CAMELBACK RD & 51ST AVE",,33.509390,-112.167706,0,0
1194,13316,"CAMELBACK RD & 53RD AVE",,33.509417,-112.172504,0,0
1195,13315,"CAMELBACK RD & 55TH AVE",,33.509444,-112.177010,0,0
1196,13314,"CAMELBACK RD & 57TH AVE",,33.509461,-112.181742,0,0
1197,13313,"CAMELBACK RD & 59TH AVE",,33.509480,-112.185807,0,0
1198,13312,"CAMELBACK RD & 61ST AVE",,33.509431,-112.191099,0,0
1199,13311,"CAMELBACK RD & 63RD AVE",,33.509291,-112.194707,0,0
1200,13336,"CAMELBACK RD & 7TH AVE",,33.508992,-112.081798,0,0
1201,13329,"CAMELBACK RD & I-17 FWY",,33.509291,-112.111010,0,0
1202,13320,"CAMELBACK RD & 43RD AVE",,33.509316,-112.150835,0,0
1203,13321,"CAMELBACK RD & 40TH AVE",,33.509192,-112.144807,0,0
1204,13327,"CAMELBACK RD & 29TH AVE",,33.509291,-112.121507,0,0
1205,13338,"CAMELBACK RD & CENTRAL AVE",,33.509151,-112.074197,0,0
1209,13307,"CAMPBELL AVE & 67TH AVE",,33.501980,-112.202006,0,0
1213,16494,"CHANDLER BLVD & EVERGREEN ST",,33.306029,-111.854492,0,0
1215,16476,"CHANDLER BLVD & 56TH ST",,33.305165,-111.962012,0,0
1216,16493,"CHANDLER BLVD & ALMA SCHOOL RD",,33.305889,-111.858207,0,0
1217,16477,"CHANDLER BLVD & BECK AVE",,33.305132,-111.955508,0,0
1218,16483,"CHANDLER BLVD & CHANDLER VILLAGE DR",,33.305412,-111.901717,0,0
1221,16489,"CHANDLER BLVD & DOBSON RD",,33.305837,-111.875796,0,0
1222,16482,"CHANDLER BLVD & DRIFTWOOD AVE",,33.305322,-111.934520,0,0
1223,14856,"CHANDLER BLVD & GALAXY DR",,33.305259,-111.919504,0,0
1224,16481,"CHANDLER BLVD & GILA SPRINGS BLVD",,33.305220,-111.941207,0,0
1225,14857,"CHANDLER BLVD & MCCLINTOCK DR",,33.305228,-111.910708,0,0
1226,16484,"CHANDLER BLVD & METRO BLVD",,33.305587,-111.897202,0,0
1228,16490,"CHANDLER BLVD & PENNINGTON DR",,33.305938,-111.871708,0,0
1229,16485,"CHANDLER BLVD & PRICE RD",,33.305741,-111.892005,0,0
1230,16478,"CHANDLER BLVD & ROOSEVELT AVE",,33.305179,-111.950717,0,0
1231,14854,"CHANDLER BLVD & RURAL RD",,33.305349,-111.927831,0,0
1232,14855,"CHANDLER BLVD & TERRACE RD",,33.305259,-111.923311,0,0
1233,16492,"CHANDLER BLVD & PARKLANE BLVD",,33.305976,-111.863018,0,0
1234,16488,"CHANDLER BLVD & CARRIAGE LN",,33.305815,-111.880058,0,0
1236,16491,"CHANDLER BLVD & ARROWHEAD DR",,33.305933,-111.868308,0,0
1239,12260,"CHERYL DR & 33RD AVE",,33.578050,-112.129476,0,0
1240,12261,"CHERYL DR -- 32ND LN & 31ST AVE",,33.576693,-112.127508,0,0
1242,11732,"COUNTRY GABLES DR & 31ST AVE",,33.620957,-112.124072,0,0
1245,10194,"DOBBINS RD & 10TH AVE",,33.362993,-112.085708,0,0
1246,10193,"DOBBINS RD & 15TH AVE",,33.362993,-112.091509,0,0
1247,10196,"DOBBINS RD & MONTEZUMA ST",,33.362993,-112.079809,0,0
1248,10697,"DUNLAP AVE & 2ND DR",,33.567615,-112.076513,0,0
1250,15256,"DUNLAP AVE & 11TH AVE",,33.567472,-112.086504,0,0
1251,15255,"DUNLAP AVE & 15TH AVE",,33.567475,-112.090710,0,0
1252,15254,"DUNLAP AVE & 17TH AVE",,33.567491,-112.094008,0,0
1253,15253,"DUNLAP AVE & 19TH AVE",,33.567522,-112.099013,0,0
1254,18065,"DUNLAP AVE & 23RD AVE",,33.567461,-112.108005,0,0
1255,11101,"DUNLAP AVE & 25TH AVE",,33.567464,-112.112320,0,0
1256,11714,"DUNLAP AVE & 31ST AVE",,33.567401,-112.125315,0,0
1258,15251,"DUNLAP AVE & 35TH AVE",,33.567398,-112.134014,0,0
1259,15250,"DUNLAP AVE & 37TH AVE",,33.567401,-112.138026,0,0
1260,15249,"DUNLAP AVE & 39TH AVE",,33.567404,-112.142314,0,0
1261,15247,"DUNLAP AVE & 43RD AVE",,33.567398,-112.150799,0,0
1262,10696,"DUNLAP AVE & 7TH AVE",,33.567491,-112.081807,0,0
1263,11100,"DUNLAP AVE & I-17 FWY",,33.567470,-112.116003,0,0
1264,15252,"DUNLAP AVE & CORTEZ HS ENTRANCE",,33.567407,-112.129209,0,0
1265,11103,"DUNLAP AVE & 21ST AVE",,33.567491,-112.103309,0,0
1269,11099,"DUNLAP AVE & 28TH AVE",,33.567445,-112.119717,0,0
1271,15248,"DUNLAP AVE & 42ND AVE",,33.567437,-112.148664,0,0
1278,15812,"ELLIOT RD & SYCAMORE PL",,33.349539,-111.869308,0,0
1279,15793,"ELLIOT RD & ROOSEVELT ST",,33.349119,-111.949511,0,0
1280,15809,"ELLIOT RD & 91ST ST",,33.349333,-111.887309,0,0
1281,15815,"ELLIOT RD & ALMA SCHOOL RD",,33.349621,-111.857805,0,0
1282,15810,"ELLIOT RD & BULLMOOSE DR",,33.349377,-111.882305,0,0
1283,15813,"ELLIOT RD & CENTRAL DR",,33.349593,-111.866204,0,0
1284,15811,"ELLIOT RD & DOBSON RD",,33.349467,-111.875510,0,0
1285,15808,"ELLIOT RD & PRICE RD",,33.349204,-111.892505,0,0
1286,15821,"ELLIOT RD & WILLIAM DILLARD DR",,33.349645,-111.830504,0,0
1287,17015,"ELLIOT RD & 48TH ST",,33.348862,-111.980808,0,0
1288,15824,"ELLIOT RD & CAMBRIDGE ST",,33.349744,-111.812811,0,0
1289,15828,"ELLIOT RD & CATALINA ST",,33.349873,-111.794204,0,0
1290,15825,"ELLIOT RD & COOPER RD",,33.349788,-111.806318,0,0
1291,15792,"ELLIOT RD & HARDY DR",,33.349070,-111.953304,0,0
1292,15823,"ELLIOT RD & ISLAND DR",,33.349697,-111.819704,0,0
1293,15826,"ELLIOT RD & MADERA PARC DR",,33.349804,-111.802210,0,0
1294,15822,"ELLIOT RD & MCQUEEN RD",,33.349665,-111.823707,0,0
1295,15827,"ELLIOT RD & NEELY ST",,33.349862,-111.797806,0,0
1296,15790,"ELLIOT RD & PRIEST DR",,33.349026,-111.963133,0,0
1297,15791,"ELLIOT RD -- PRIEST DR & HARDY DR",,33.349054,-111.958005,0,0
1298,15816,"ELLIOT RD & NEBRASKA ST",,33.349634,-111.848213,0,0
1318,10735,"FILLMORE ST & 3RD AVE",,33.454658,-112.077215,0,0
1320,10733,"FILLMORE ST & 6TH AVE",,33.454675,-112.080827,0,0
1321,10736,"FILLMORE ST & CENTRAL AVE",,33.454642,-112.074207,0,0
1322,10734,"FILLMORE ST & 4TH AVE",,33.454666,-112.079212,0,0
1323,15525,"FRYE RD & ALMA SCHOOL RD",,33.298707,-111.858304,0,0
1324,15528,"FRYE RD & CALIFORNIA ST",,33.298811,-111.843299,0,0
1325,15526,"FRYE RD & FAIRVIEW ST",,33.298750,-111.853700,0,0
1326,15527,"FRYE RD & NEBRASKA ST",,33.298778,-111.846693,0,0
1327,14475,"GLENDALE AVE & 11TH AVE",,33.538291,-112.087006,0,0
1328,14474,"GLENDALE AVE & 15TH AVE",,33.538423,-112.090896,0,0
1330,14473,"GLENDALE AVE & 17TH DR",,33.538491,-112.095708,0,0
1331,14472,"GLENDALE AVE & 19TH AVE",,33.538557,-112.098705,0,0
1332,14471,"GLENDALE AVE & 21ST AVE",,33.538494,-112.103509,0,0
1333,14470,"GLENDALE AVE & 23RD AVE",,33.538491,-112.107806,0,0
1334,14468,"GLENDALE AVE & 27TH AVE",,33.538291,-112.116309,0,0
1335,14467,"GLENDALE AVE & 29TH DR",,33.538291,-112.121506,0,0
1336,14466,"GLENDALE AVE & 31ST AVE",,33.538291,-112.125208,0,0
1337,14465,"GLENDALE AVE & 33RD AVE",,33.538456,-112.129755,0,0
1338,14464,"GLENDALE AVE & 35TH AVE",,33.538294,-112.133309,0,0
1339,14462,"GLENDALE AVE & 39TH AVE",,33.538404,-112.142505,0,0
1340,14477,"GLENDALE AVE & 3RD AVE",,33.538193,-112.077707,0,0
1341,14461,"GLENDALE AVE & 41ST AVE",,33.538291,-112.146709,0,0
1342,14460,"GLENDALE AVE & 43RD AVE",,33.538291,-112.150809,0,0
1343,14457,"GLENDALE AVE & 46TH AVE",,33.538291,-112.157006,0,0
1344,14455,"GLENDALE AVE & 49TH AVE",,33.538384,-112.164204,0,0
1345,14453,"GLENDALE AVE & 52ND AVE",,33.538291,-112.169509,0,0
1346,14452,"GLENDALE AVE & 54TH AVE",,33.538434,-112.174089,0,0
1347,14451,"GLENDALE AVE & 55TH AVE",,33.538436,-112.177005,0,0
1348,14449,"GLENDALE AVE & 57TH AVE",,33.538467,-112.180506,0,0
1350,14447,"GLENDALE AVE & 60TH AVE",,33.538456,-112.188810,0,0
1351,14446,"GLENDALE AVE & 63RD AVE",,33.538404,-112.194512,0,0
1352,14444,"GLENDALE AVE & 67TH AVE",,33.538264,-112.202208,0,0
1353,14442,"GLENDALE AVE & 71ST AVE",,33.537992,-112.211007,0,0
1354,14441,"GLENDALE AVE & 73RD AVE",,33.537792,-112.215005,0,0
1355,14440,"GLENDALE AVE & 75TH AVE",,33.537691,-112.219507,0,0
1356,14439,"GLENDALE AVE & 76TH DR",,33.537694,-112.223807,0,0
1357,14438,"GLENDALE AVE & 79TH AVE",,33.537694,-112.228209,0,0
1358,14476,"GLENDALE AVE & 7TH AVE",,33.538256,-112.081507,0,0
1359,14437,"GLENDALE AVE & 81ST AVE",,33.537691,-112.233006,0,0
1360,14436,"GLENDALE AVE & 83RD AVE",,33.537639,-112.237208,0,0
1361,14469,"GLENDALE AVE & I-17 FWY",,33.538516,-112.111613,0,0
1362,14423,"GLENDALE AVE & GLEN HARBOR BLVD",,33.536192,-112.293309,0,0
1363,14417,"GLENDALE AVE & LALOMAI",,33.536680,-112.345803,0,0
1364,14456,"GLENDALE AVE -- 48TH AVE & 47TH AVE",,33.538294,-112.161506,0,0
1365,14454,"GLENDALE AVE -- 51ST AVE & 50TH DR",,33.538294,-112.167309,0,0
1366,14419,"GLENDALE AVE & 127TH AVE",,33.536505,-112.334194,0,0
1367,14422,"GLENDALE AVE -- LANDFILL RD & GLEN HARBOR BLVD",,33.536294,-112.306208,0,0
1369,14463,"GLENDALE AVE & 37TH AVE",,33.538291,-112.139210,0,0
1370,14459,"EB GLENDALE AVE NS 43RD AVE",,33.538291,-112.152209,0,0
1371,14448,"GLENDALE AVE & 58TH DR",,33.538508,-112.185091,0,0
1372,14445,"GLENDALE AVE & 64TH AVE",,33.538357,-112.197820,0,0
1373,14443,"GLENDALE AVE & 68TH DR",,33.538190,-112.206308,0,0
1403,14216,"GROVE PKWY & HARDY DR",,33.354729,-111.953512,0,0
1404,14217,"GROVE PKWY -- HARDY DR & KYRENE RD",,33.354690,-111.948310,0,0
1409,14198,"GUADALUPE RD & ASH",,33.363626,-111.941710,0,0
1410,14197,"GUADALUPE RD & KYRENE RD",,33.363618,-111.945306,0,0
1411,14199,"GUADALUPE RD & MAPLE AVE",,33.363651,-111.938255,0,0
1412,15605,"HATCHER RD & 3RD DR",,33.571194,-112.078006,0,0
1413,15603,"HATCHER RD & 11TH AVE",,33.571122,-112.086700,0,0
1414,15601,"HATCHER RD & 15TH AVE",,33.570991,-112.090807,0,0
1415,15604,"HATCHER RD & 7TH AVE",,33.571155,-112.082019,0,0
1416,17344,"HOLLY ST & 51ST AVE",,33.470746,-112.168708,0,0
1417,12711,"INDIAN SCHOOL RD & 5TH AVE",,33.494756,-112.080272,0,0
1418,12709,"INDIAN SCHOOL RD & 11TH AVE",,33.494836,-112.086504,0,0
1419,12708,"INDIAN SCHOOL RD & 15TH AVE",,33.494872,-112.090808,0,0
1420,12706,"INDIAN SCHOOL RD & 19TH AVE",,33.494937,-112.098801,0,0
1421,12704,"INDIAN SCHOOL RD & 23RD AVE",,33.494937,-112.107499,0,0
1422,12702,"INDIAN SCHOOL RD & 27TH AVE",,33.494869,-112.116892,0,0
1423,12700,"INDIAN SCHOOL RD & 31ST AVE",,33.494869,-112.125011,0,0
1424,12699,"INDIAN SCHOOL RD & 33RD AVE",,33.494877,-112.129089,0,0
1425,12698,"INDIAN SCHOOL RD & 38TH AVE",,33.494896,-112.139719,0,0
1426,12697,"INDIAN SCHOOL RD & 39TH AVE",,33.494902,-112.142206,0,0
1427,12712,"INDIAN SCHOOL RD & 3RD AVE",,33.494754,-112.077702,0,0
1428,12695,"INDIAN SCHOOL RD & 43RD AVE",,33.494839,-112.150807,0,0
1429,12694,"INDIAN SCHOOL RD & 45TH AVE",,33.494861,-112.155508,0,0
1430,12693,"INDIAN SCHOOL RD & 47TH AVE",,33.494861,-112.159803,0,0
1431,12691,"INDIAN SCHOOL RD & 51ST AVE",,33.494872,-112.167709,0,0
1432,12690,"INDIAN SCHOOL RD & 53RD AVE",,33.494893,-112.172703,0,0
1433,12689,"INDIAN SCHOOL RD & 55TH AVE",,33.494924,-112.177004,0,0
1434,12688,"INDIAN SCHOOL RD & 57TH AVE",,33.494954,-112.181860,0,0
1435,12687,"INDIAN SCHOOL RD & 59TH AVE",,33.494976,-112.186007,0,0
1436,12686,"INDIAN SCHOOL RD & 61ST AVE",,33.494915,-112.190631,0,0
1437,12685,"INDIAN SCHOOL RD & 63RD AVE",,33.494861,-112.194513,0,0
1438,12684,"INDIAN SCHOOL RD & 64TH DR",,33.494844,-112.198877,0,0
1439,12683,"INDIAN SCHOOL RD & 67TH AVE",,33.494748,-112.202713,0,0
1440,11409,"INDIAN SCHOOL RD & 71ST AVE",,33.494672,-112.211311,0,0
1441,18144,"INDIAN SCHOOL RD & 73RD AVE",,33.494639,-112.215704,0,0
1442,18143,"INDIAN SCHOOL RD & 75TH AVE",,33.494603,-112.219806,0,0
1443,12680,"INDIAN SCHOOL RD & 79TH DR",,33.494395,-112.229434,0,0
1444,12710,"INDIAN SCHOOL RD & 7TH AVE",,33.494800,-112.082811,0,0
1445,12678,"INDIAN SCHOOL RD & 83RD AVE",,33.494217,-112.237008,0,0
1446,12703,"INDIAN SCHOOL RD & I-17 FWY",,33.494907,-112.112330,0,0
1447,12707,"INDIAN SCHOOL RD & 17TH AVE",,33.494918,-112.095200,0,0
1448,12705,"INDIAN SCHOOL RD -- 22ND AVE & 20TH AVE",,33.494937,-112.103214,0,0
1449,12701,"INDIAN SCHOOL RD & 29TH AVE",,33.494869,-112.121003,0,0
1450,12696,"INDIAN SCHOOL RD & 40TH AVE",,33.494880,-112.146511,0,0
1451,12692,"INDIAN SCHOOL RD & 49TH AVE",,33.494866,-112.164229,0,0
1452,12682,"INDIAN SCHOOL RD & 69TH AVE",,33.494691,-112.207403,0,0
1453,12681,"INDIAN SCHOOL RD & 76TH DR",,33.494524,-112.223918,0,0
1454,12679,"INDIAN SCHOOL RD & 80TH DR",,33.494340,-112.231978,0,0
1455,18030,"INDIAN SCHOOL RD & CENTRAL AVE",,33.494735,-112.074305,0,0
1456,18389,"JEFFERSON ST & 12TH AVE",,33.446974,-112.087702,0,0
1457,10204,"JEFFERSON ST & 15TH AVE",,33.446952,-112.091003,0,0
1459,10203,"EB JEFFERSON ST FS 17TH AVE",,33.446996,-112.095514,0,0
1460,10201,"JEFFERSON ST & 19TH AVE",,33.446881,-112.099970,0,0
1463,10210,"JEFFERSON ST & 3RD AVE",,33.447029,-112.077181,0,0
1464,10209,"JEFFERSON ST & 5TH AVE",,33.446985,-112.079800,0,0
1465,10208,"JEFFERSON ST & 7TH AVE",,33.447005,-112.082128,0,0
1466,10207,"JEFFERSON ST & 9TH AVE",,33.446994,-112.084305,0,0
1468,10205,"JEFFERSON ST & 14TH AVE",,33.446947,-112.089807,0,0
1469,10202,"EB JEFFERSON ST NS 17TH AVE",,33.446985,-112.096808,0,0
1471,17052,"KNOX RD & HARTFORD ST",,33.327816,-111.849804,0,0
1473,17051,"KNOX RD & PLEASANT DR",,33.327794,-111.857023,0,0
1478,16145,"LOWER BUCKEYE RD & EL MIRAGE RD",,33.420449,-112.324690,0,0
1479,17196,"MAIN ST & ALMA SCHOOL RD",,33.414782,-111.855694,0,0
1480,12531,"MAIN ST & DOBSON RD",,33.414760,-111.873708,0,0
1481,12536,"MAIN ST & EXTENSION RD",,33.414938,-111.848005,0,0
1482,12527,"MAIN ST & LEBANON LN",,33.414738,-111.885701,0,0
1483,12533,"MAIN ST & LONGMORE",,33.414798,-111.864695,0,0
1484,18382,"MAIN ST & MACDONALD",,33.415026,-111.833499,0,0
1485,12540,"MAIN ST & ROBSON",,33.415037,-111.836207,0,0
1486,12528,"MAIN ST & ROOSEVELT RD",,33.414713,-111.882323,0,0
1487,12534,"MAIN ST & STEWART",,33.414691,-111.859510,0,0
1488,12532,"MAIN ST & SYCAMORE",,33.414773,-111.869705,0,0
1489,12535,"MAIN ST -- BEVERLY & EXTENSION RD",,33.414880,-111.852520,0,0
1490,12529,"MAIN ST -- ROOSEVELT RD & MAY",,33.414710,-111.880806,0,0
1491,12530,"MAIN ST -- SAN JOSE & SANTA BARBARA",,33.414743,-111.877654,0,0
1492,12539,"MAIN ST & COUNTRY CLUB DR",,33.415034,-111.839155,0,0
1493,12537,"MAIN ST & DATE",,33.414990,-111.844311,0,0
1494,16172,"MCDOWELL RD & PALM VALLEY BLVD",,33.464191,-112.349307,0,0
1495,11328,"MCDOWELL RD & 45TH CIR",,33.465899,-112.155706,0,0
1496,11320,"MCDOWELL RD & 61ST AVE",,33.465877,-112.190208,0,0
1497,11318,"MCDOWELL RD & 65TH AVE",,33.465814,-112.198805,0,0
1498,11316,"MCDOWELL RD & 69TH AVE",,33.465737,-112.207810,0,0
1499,16715,"MCDOWELL RD & 86TH DR",,33.464994,-112.246207,0,0
1500,11323,"MCDOWELL RD & 55TH AVE",,33.465904,-112.177849,0,0
1501,11345,"MCDOWELL RD & 11TH AVE",,33.465767,-112.086310,0,0
1502,11344,"MCDOWELL RD & 15TH AVE",,33.465767,-112.090708,0,0
1503,11343,"MCDOWELL RD & 17TH AVE",,33.465778,-112.095208,0,0
1504,11342,"MCDOWELL RD & 19TH AVE",,33.465781,-112.099212,0,0
1505,11341,"MCDOWELL RD & 21ST AVE",,33.465808,-112.103807,0,0
1506,11339,"MCDOWELL RD & 25TH AVE",,33.465855,-112.112699,0,0
1507,11338,"MCDOWELL RD & 27TH AVE",,33.465869,-112.116299,0,0
1508,11337,"MCDOWELL RD & 29TH AVE",,33.465877,-112.120809,0,0
1509,11336,"MCDOWELL RD & 31ST AVE",,33.465869,-112.125204,0,0
1510,11334,"MCDOWELL RD & 35TH AVE",,33.465882,-112.133705,0,0
1511,11333,"MCDOWELL RD & 37TH AVE",,33.465866,-112.138215,0,0
1512,11332,"MCDOWELL RD & 39TH AVE",,33.465890,-112.142505,0,0
1513,11331,"MCDOWELL RD & 41ST AVE",,33.465893,-112.146808,0,0
1514,11329,"MCDOWELL RD & 43RD AVE",,33.465896,-112.151209,0,0
1515,11327,"MCDOWELL RD & 47TH AVE",,33.465901,-112.159205,0,0
1516,11326,"MCDOWELL RD & 48TH DR",,33.465901,-112.163807,0,0
1517,11325,"MCDOWELL RD & 51ST AVE",,33.465901,-112.168310,0,0
1518,11321,"MCDOWELL RD & 59TH AVE",,33.465904,-112.185707,0,0
1519,11319,"MCDOWELL RD & 63RD AVE",,33.465847,-112.194308,0,0
1520,11317,"MCDOWELL RD & 67TH AVE",,33.465786,-112.202866,0,0
1521,11315,"MCDOWELL RD & 71ST AVE",,33.465693,-112.211510,0,0
1522,11314,"MCDOWELL RD & 73RD AVE",,33.465649,-112.215807,0,0
1523,11313,"EB MCDOWELL RD FS 75TH AVE",,33.465605,-112.219510,0,0
1524,11346,"MCDOWELL RD & 7TH AVE",,33.465751,-112.082204,0,0
1525,16171,"MCDOWELL RD & LITCHFIELD RD",,33.464191,-112.357306,0,0
1526,11340,"MCDOWELL RD & I-17 FWY",,33.465830,-112.108202,0,0
1527,11347,"MCDOWELL RD & 3RD AVE",,33.465693,-112.077508,0,0
1528,11330,"MCDOWELL RD -- 43RD AVE & 41ST AVE",,33.465899,-112.148831,0,0
1529,11322,"MCDOWELL RD & 57TH AVE",,33.465904,-112.182205,0,0
1531,11335,"MCDOWELL RD & 33RD DR",,33.465882,-112.129004,0,0
1532,11324,"MCDOWELL RD & 52ND AVE",,33.465904,-112.173307,0,0
1533,15951,"MCKELLIPS RD & COUNTRY CLUB DR",,33.451266,-111.839021,0,0
1538,15033,"NORTHERN AVE & 12TH AVE",,33.552919,-112.087695,0,0
1539,15032,"NORTHERN AVE & 15TH AVE",,33.552793,-112.090709,0,0
1540,15031,"NORTHERN AVE & 17TH AVE",,33.552793,-112.095707,0,0
1541,15030,"NORTHERN AVE & 19TH AVE",,33.552924,-112.098986,0,0
1542,15029,"NORTHERN AVE & 21ST AVE",,33.552979,-112.103891,0,0
1543,15028,"NORTHERN AVE & 23RD AVE",,33.552952,-112.107995,0,0
1544,15026,"NORTHERN AVE & 27TH AVE",,33.552993,-112.116507,0,0
1545,15025,"NORTHERN AVE & 29TH AVE",,33.552984,-112.120795,0,0
1546,15024,"NORTHERN AVE & 31ST AVE",,33.552993,-112.124708,0,0
1548,15022,"NORTHERN AVE & 35TH AVE",,33.552990,-112.133708,0,0
1549,15021,"NORTHERN AVE & 37TH AVE",,33.552976,-112.138693,0,0
1550,15020,"NORTHERN AVE & 39TH AVE",,33.552968,-112.142718,0,0
1553,15018,"NORTHERN AVE & 43RD AVE",,33.552995,-112.150816,0,0
1554,15017,"NORTHERN AVE & 46TH AVE",,33.552960,-112.157738,0,0
1555,15015,"NORTHERN AVE & 49TH AVE",,33.552979,-112.164357,0,0
1556,15013,"NORTHERN AVE & 53RD AVE",,33.552965,-112.172015,0,0
1557,15012,"NORTHERN AVE & 55TH AVE",,33.552995,-112.176996,0,0
1558,1542,"NORTHERN AVE & 57TH AVE",,33.552965,-112.181709,0,0
1559,15034,"NORTHERN AVE & 7TH AVE",,33.552834,-112.081811,0,0
1560,15027,"NORTHERN AVE & I-17 FWY",,33.552793,-112.111309,0,0
1561,15014,"NORTHERN AVE & SANDS RD",,33.552971,-112.168309,0,0
1562,15019,"NORTHERN AVE & 40TH DR",,33.552993,-112.146308,0,0
1563,15016,"NORTHERN AVE & 47TH AVE",,33.552965,-112.161023,0,0
1564,15245,"OLIVE AVE & 45TH AVE",,33.567368,-112.155039,0,0
1565,15244,"OLIVE AVE & 47TH AVE",,33.567291,-112.159809,0,0
1566,15243,"OLIVE AVE & 49TH AVE",,33.567291,-112.164009,0,0
1567,15242,"OLIVE AVE & 51ST AVE",,33.567376,-112.168312,0,0
1568,15241,"OLIVE AVE & 53RD AVE",,33.567344,-112.173298,0,0
1569,15240,"OLIVE AVE & 55TH AVE",,33.567291,-112.176808,0,0
1570,15239,"OLIVE AVE & 57TH AVE",,33.567371,-112.181332,0,0
1571,15238,"OLIVE AVE & 59TH AVE",,33.567352,-112.185729,0,0
1572,15237,"OLIVE AVE & 61ST AVE",,33.567193,-112.189807,0,0
1573,15236,"OLIVE AVE & 63RD AVE",,33.567201,-112.194520,0,0
1574,15235,"OLIVE AVE & 65TH AVE",,33.567152,-112.198322,0,0
1575,15246,"OLIVE AVE -- 45TH AVE & 43RD AVE",,33.567374,-112.153513,0,0
1579,17307,"OSBORN RD & 83RD AVE",,33.486971,-112.237460,0,0
1582,15547,"PEORIA AVE & PINEHURST DR",,33.580195,-112.283571,0,0
1583,15549,"PEORIA AVE & 101ST AVE",,33.580184,-112.277920,0,0
1584,15548,"PEORIA AVE & 103RD AVE",,33.580165,-112.280338,0,0
1585,15546,"PEORIA AVE & 106TH AVE",,33.579993,-112.287209,0,0
1586,15545,"PEORIA AVE & 107TH AVE",,33.580080,-112.289131,0,0
1587,15544,"PEORIA AVE & 108TH AVE",,33.580034,-112.292365,0,0
1588,15542,"PEORIA AVE & 111TH AVE",,33.579793,-112.297807,0,0
1589,15602,"HATCHER RD & 13TH AVE",,33.570991,-112.088705,0,0
1590,15597,"PEORIA AVE & 17TH AVE",,33.581993,-112.095309,0,0
1591,15596,"PEORIA AVE & 19TH AVE",,33.581993,-112.098808,0,0
1593,15595,"PEORIA AVE & 21ST AVE",,33.581968,-112.103503,0,0
1594,15594,"PEORIA AVE & 23RD AVE",,33.581914,-112.107309,0,0
1595,15593,"PEORIA AVE & 25TH AVE",,33.581894,-112.112698,0,0
1596,15592,"PEORIA AVE & 28TH DR",,33.581692,-112.121306,0,0
1598,15586,"PEORIA AVE & 31ST AVE",,33.581694,-112.124707,0,0
1599,15585,"PEORIA AVE & 32ND LN",,33.581845,-112.129306,0,0
1600,15584,"PEORIA AVE & 35TH AVE",,33.581897,-112.133206,0,0
1601,18202,"PEORIA AVE & 37TH AVE",,33.581894,-112.137719,0,0
1602,15582,"PEORIA AVE & 39TH AVE",,33.581793,-112.142007,0,0
1603,15581,"PEORIA AVE & 41ST AVE",,33.581692,-112.145706,0,0
1604,15580,"PEORIA AVE & 43RD AVE",,33.581793,-112.150806,0,0
1605,15579,"PEORIA AVE & 45TH AVE",,33.581790,-112.156006,0,0
1606,15578,"PEORIA AVE & 47TH AVE",,33.581760,-112.159954,0,0
1607,15577,"PEORIA AVE & 49TH AVE",,33.581722,-112.164201,0,0
1608,15576,"PEORIA AVE & 51ST AVE",,33.581793,-112.168008,0,0
1609,15575,"PEORIA AVE & 53RD AVE",,33.581692,-112.172507,0,0
1610,15574,"PEORIA AVE & 55TH AVE",,33.581694,-112.177010,0,0
1611,15573,"PEORIA AVE & 57TH AVE",,33.581801,-112.181655,0,0
1612,15572,"PEORIA AVE & 59TH AVE",,33.581692,-112.185305,0,0
1613,15571,"PEORIA AVE & 61ST AVE",,33.581768,-112.190248,0,0
1614,15570,"PEORIA AVE & 63RD AVE",,33.581692,-112.194209,0,0
1615,15569,"PEORIA AVE & 65TH AVE",,33.581708,-112.197288,0,0
1616,15568,"PEORIA AVE & 67TH AVE",,33.581640,-112.202371,0,0
1617,15566,"PEORIA AVE & 69TH AVE",,33.581492,-112.206807,0,0
1618,15565,"PEORIA AVE & 71ST AVE",,33.581291,-112.211205,0,0
1619,15564,"PEORIA AVE & 75TH AVE",,33.581193,-112.219506,0,0
1620,15562,"PEORIA AVE & 77TH AVE",,33.581193,-112.224209,0,0
1621,15561,"PEORIA AVE & 79TH AVE",,33.580993,-112.228509,0,0
1622,15560,"PEORIA AVE & 81ST AVE",,33.580990,-112.233008,0,0
1623,15558,"PEORIA AVE & 84TH AVE",,33.581492,-112.239308,0,0
1624,15556,"PEORIA AVE & 87TH AVE",,33.580793,-112.245807,0,0
1625,15555,"PEORIA AVE & 89TH AVE",,33.580694,-112.250210,0,0
1626,15554,"PEORIA AVE & 91ST AVE",,33.580790,-112.254244,0,0
1627,15553,"PEORIA AVE & 96TH AVE",,33.580294,-112.264807,0,0
1628,15552,"PEORIA AVE & 98TH AVE",,33.580291,-112.269508,0,0
1629,15551,"PEORIA AVE & 99TH AVE",,33.580264,-112.271087,0,0
1630,15550,"PEORIA AVE & BALBOA DR",,33.580193,-112.275006,0,0
1631,15557,"PEORIA AVE & CHERRY LN",,33.580691,-112.243306,0,0
1632,15543,"PEORIA AVE & CLAIR DR",,33.579995,-112.295198,0,0
1633,15559,"PEORIA AVE -- 83RD AVE & 83RD AVE",,33.582453,-112.236838,0,0
1634,15567,"PEORIA AVE & 67TH AVE",,33.581500,-112.203686,0,0
1635,15563,"PEORIA AVE & 75TH AVE",,33.581193,-112.220706,0,0
1638,13533,"ROESER RD & 7TH AVE",,33.399228,-112.081516,0,0
1639,13534,"ROESER RD & MONTEZUMA ST",,33.399496,-112.077208,0,0
1641,18152,"23RD AVE & ROSE GARDEN LN",,33.676034,-112.108737,0,0
1643,13952,"SOUTHERN AVE & FAIR LN",,33.392692,-111.975709,0,0
1644,13988,"SOUTHERN AVE & MACDONALD",,33.393246,-111.834285,0,0
1645,13979,"SOUTHERN AVE & SYCAMORE",,33.392964,-111.871011,0,0
1646,13928,"SOUTHERN AVE & 7TH AVE",,33.392142,-112.081330,0,0
1647,13925,"SOUTHERN AVE & 13TH AVE",,33.392155,-112.088016,0,0
1649,13057,"SOUTHERN AVE & 19TH AVE",,33.392183,-112.098501,0,0
1650,13923,"SOUTHERN AVE & 20TH GL",,33.392163,-112.103812,0,0
1651,13922,"SOUTHERN AVE & 23RD AVE",,33.392150,-112.107304,0,0
1652,13920,"SOUTHERN AVE & 27TH AVE",,33.392032,-112.115508,0,0
1653,13916,"SOUTHERN AVE & 35TH AVE",,33.392015,-112.133009,0,0
1654,13915,"SOUTHERN AVE & 39TH AVE",,33.391920,-112.141800,0,0
1655,13559,"SOUTHERN AVE & 48TH ST",,33.392701,-111.977704,0,0
1656,13983,"SOUTHERN AVE & ALMA SCHOOL RD",,33.392994,-111.856208,0,0
1657,13989,"SOUTHERN AVE & CENTER ST",,33.393224,-111.831006,0,0
1658,13954,"SOUTHERN AVE & CLEMENTINE DR",,33.392728,-111.962803,0,0
1659,13987,"SOUTHERN AVE & COUNTRY CLUB DR",,33.393210,-111.839507,0,0
1660,13978,"SOUTHERN AVE & DOBSON RD",,33.392969,-111.874007,0,0
1661,13985,"SOUTHERN AVE & EXTENSION RD",,33.393070,-111.848008,0,0
1662,13957,"SOUTHERN AVE & HARDY DR",,33.392766,-111.951594,0,0
1663,13981,"SOUTHERN AVE & LONGMORE",,33.392977,-111.863400,0,0
1664,13929,"SOUTHERN AVE & MONTEZUMA ST",,33.392147,-112.077323,0,0
1665,13953,"SOUTHERN AVE & POTTER RD",,33.392692,-111.971806,0,0
1666,13955,"SOUTHERN AVE & PRIEST DR",,33.392769,-111.960009,0,0
1667,13958,"SOUTHERN AVE & ROOSEVELT ST",,33.392733,-111.947298,0,0
1668,13977,"SOUTHERN AVE & SAN JOSE",,33.392936,-111.877812,0,0
1669,13982,"SOUTHERN AVE & STEWART",,33.392997,-111.859812,0,0
1670,13986,"SOUTHERN AVE & VINEYARD",,33.393202,-111.842205,0,0
1671,13956,"SOUTHERN AVE & WESTFALL AVE",,33.392692,-111.955307,0,0
1672,13984,"SOUTHERN AVE & WESTWOOD",,33.393021,-111.852509,0,0
1673,13058,"SOUTHERN AVE & 17TH AVE",,33.392163,-112.094337,0,0
1674,13921,"SOUTHERN AVE -- 27TH AVE & 23RD AVE",,33.392117,-112.111703,0,0
1675,13918,"SOUTHERN AVE & 31ST AVE",,33.392046,-112.124311,0,0
1676,13980,"SOUTHERN AVE -- SYCAMORE & LONGMORE",,33.392988,-111.867600,0,0
1677,13959,"SOUTHERN AVE & KYRENE RD",,33.392692,-111.944309,0,0
1678,11804,"SWEETWATER AVE & 30TH DR",,33.603499,-112.123385,0,0
1683,11891,"THOMAS RD & 17TH AVE",,33.480293,-112.095007,0,0
1684,11868,"THOMAS RD & 61ST AVE",,33.480293,-112.190208,0,0
1685,11496,"THOMAS RD & 81ST AVE",,33.479855,-112.232009,0,0
1686,11872,"THOMAS RD & 53RD AVE",,33.480293,-112.173009,0,0
1687,11892,"THOMAS RD & 15TH AVE",,33.480293,-112.090808,0,0
1688,11890,"THOMAS RD & 19TH AVE",,33.480293,-112.099307,0,0
1689,11889,"THOMAS RD & 21ST AVE",,33.480493,-112.104208,0,0
1690,11886,"THOMAS RD & 27TH AVE",,33.480293,-112.116207,0,0
1691,11885,"THOMAS RD & 29TH AVE",,33.480293,-112.120209,0,0
1692,11884,"THOMAS RD & 31ST AVE",,33.480192,-112.125007,0,0
1693,11883,"THOMAS RD & 33RD AVE",,33.480291,-112.129208,0,0
1694,11882,"THOMAS RD & 35TH AVE",,33.480291,-112.133807,0,0
1695,11881,"THOMAS RD & 37TH AVE",,33.480195,-112.137807,0,0
1696,11880,"THOMAS RD & 39TH AVE",,33.480293,-112.142306,0,0
1697,11896,"THOMAS RD & 3RD AVE",,33.480197,-112.077501,0,0
1698,11878,"THOMAS RD & 43RD AVE",,33.480293,-112.150707,0,0
1699,11877,"THOMAS RD & 45TH AVE",,33.480315,-112.155711,0,0
1700,18324,"THOMAS RD & 46TH AVE",,33.480274,-112.156832,0,0
1701,11875,"THOMAS RD & 48TH LN",,33.480332,-112.161217,0,0
1702,11874,"THOMAS RD & 50TH DR",,33.480293,-112.165308,0,0
1703,11873,"THOMAS RD & 51ST AVE",,33.480381,-112.168266,0,0
1704,11871,"THOMAS RD & 55TH AVE",,33.480293,-112.177207,0,0
1705,11870,"THOMAS RD & 56TH DR",,33.480450,-112.180910,0,0
1706,11869,"THOMAS RD & 59TH AVE",,33.480293,-112.185207,0,0
1707,11895,"THOMAS RD & 5TH AVE",,33.480192,-112.079508,0,0
1708,11867,"THOMAS RD & 63RD AVE",,33.480291,-112.194206,0,0
1709,11866,"THOMAS RD & 65TH AVE",,33.480192,-112.199008,0,0
1710,11865,"THOMAS RD & 67TH AVE",,33.480266,-112.202771,0,0
1711,11864,"THOMAS RD & 69TH AVE",,33.480219,-112.207286,0,0
1712,11894,"THOMAS RD & 7TH AVE",,33.480192,-112.082708,0,0
1713,11863,"THOMAS RD & 71ST AVE",,33.479995,-112.211509,0,0
1714,11862,"THOMAS RD & 72ND DR",,33.479992,-112.215208,0,0
1715,11861,"EB THOMAS FS 75TH AVE",,33.480118,-112.220006,0,0
1716,11498,"THOMAS RD & 78TH AVE",,33.480055,-112.224262,0,0
1719,11495,"THOMAS RD & 83RD AVE",,33.479737,-112.237212,0,0
1721,11893,"THOMAS RD & 11TH AVE",,33.480323,-112.086572,0,0
1723,11497,"THOMAS RD & 79TH AVE",,33.479956,-112.227516,0,0
1724,11887,"THOMAS RD & I-17 FWY",,33.480510,-112.111541,0,0
1725,11879,"THOMAS RD & 41ST AVE",,33.480367,-112.147453,0,0
1726,16306,"THUNDERBIRD RD & 45TH CIR",,33.610492,-112.154008,0,0
1727,16303,"THUNDERBIRD RD & 53RD AVE",,33.610686,-112.173009,0,0
1731,16300,"THUNDERBIRD RD & 56TH AVE",,33.610675,-112.180512,0,0
1732,16314,"THUNDERBIRD RD & 28TH AVE",,33.610692,-112.119209,0,0
1733,15788,"THUNDERBIRD RD & 105TH AVE",,33.604880,-112.284303,0,0
1734,15786,"THUNDERBIRD RD & 109TH AVE",,33.606694,-112.294007,0,0
1735,15785,"THUNDERBIRD RD & 111TH AVE",,33.608491,-112.297205,0,0
1736,16319,"THUNDERBIRD RD & 16TH AVE",,33.609694,-112.093007,0,0
1737,16318,"THUNDERBIRD RD & 19TH AVE",,33.611043,-112.098825,0,0
1738,16317,"THUNDERBIRD RD & 21ST AVE",,33.610980,-112.103212,0,0
1739,16315,"THUNDERBIRD RD & 24TH DR",,33.610862,-112.110914,0,0
1740,16313,"THUNDERBIRD RD & 31ST AVE",,33.610769,-112.124916,0,0
1741,16311,"THUNDERBIRD RD & 35TH AVE",,33.610692,-112.132808,0,0
1742,16310,"THUNDERBIRD RD & 37TH AVE",,33.610492,-112.137708,0,0
1743,16309,"THUNDERBIRD RD & 39TH AVE",,33.610692,-112.141810,0,0
1744,16308,"THUNDERBIRD RD & 40TH DR",,33.610692,-112.145209,0,0
1745,16307,"THUNDERBIRD RD & 43RD AVE",,33.610492,-112.150208,0,0
1746,16305,"THUNDERBIRD RD & 47TH AVE",,33.610667,-112.159009,0,0
1747,13487,"THUNDERBIRD RD & 51ST AVE",,33.610643,-112.168117,0,0
1748,16302,"THUNDERBIRD RD & 55TH AVE",,33.610667,-112.176507,0,0
1749,16299,"THUNDERBIRD RD & 59TH AVE",,33.610692,-112.184707,0,0
1750,16321,"THUNDERBIRD RD & 5TH AVE",,33.607291,-112.080307,0,0
1753,16320,"THUNDERBIRD RD & CORAL GABLES DR",,33.607291,-112.084808,0,0
1754,15787,"THUNDERBIRD RD & DEL WEBB BLVD",,33.605192,-112.288805,0,0
1755,16316,"THUNDERBIRD RD & 23RD AVE",,33.610917,-112.107349,0,0
1756,16312,"THUNDERBIRD RD & 33RD AVE",,33.610763,-112.129506,0,0
1757,16304,"THUNDERBIRD RD & 51ST AVE",,33.610662,-112.169012,0,0
1758,11785,"UNION HILLS DR & 29TH AVE",,33.654492,-112.121510,0,0
1759,16782,"UNION HILLS DR & 37TH DR",,33.654490,-112.138806,0,0
1760,16780,"UNION HILLS DR & 41ST AVE",,33.654498,-112.147487,0,0
1761,16790,"UNION HILLS DR & 11TH AVE",,33.654490,-112.086707,0,0
1762,16789,"UNION HILLS DR & 15TH AVE",,33.654492,-112.091009,0,0
1763,16788,"UNION HILLS DR & 17TH AVE",,33.654492,-112.095206,0,0
1764,16787,"UNION HILLS DR & 19TH AVE",,33.654492,-112.099006,0,0
1765,16786,"UNION HILLS DR & 21ST AVE",,33.654492,-112.104806,0,0
1766,16785,"UNION HILLS DR & 23RD AVE",,33.654577,-112.108169,0,0
1767,16784,"UNION HILLS DR & 24TH DR",,33.654649,-112.110818,0,0
1768,16783,"UNION HILLS DR & 27TH AVE",,33.654564,-112.117479,0,0
1769,16792,"UNION HILLS DR & 2ND AVE",,33.654490,-112.076508,0,0
1770,11784,"UNION HILLS DR & 31ST AVE",,33.654492,-112.125309,0,0
1771,11783,"UNION HILLS DR & 33RD AVE",,33.654492,-112.129806,0,0
1772,11782,"UNION HILLS DR & 35TH AVE",,33.654492,-112.133809,0,0
1773,16781,"UNION HILLS DR & 39TH AVE",,33.654520,-112.142697,0,0
1774,16779,"UNION HILLS DR & 43RD AVE",,33.654292,-112.151310,0,0
1775,12903,"UNION HILLS DR & 45TH AVE",,33.654468,-112.154016,0,0
1776,16778,"UNION HILLS DR & 47TH AVE",,33.654292,-112.160007,0,0
1777,16777,"UNION HILLS DR & 49TH AVE",,33.654292,-112.164208,0,0
1778,16776,"UNION HILLS DR & 51ST AVE",,33.654292,-112.168007,0,0
1779,16775,"UNION HILLS DR & 53RD AVE",,33.654292,-112.172708,0,0
1780,16774,"UNION HILLS DR & 55TH AVE",,33.654191,-112.176805,0,0
1781,16773,"UNION HILLS DR & 57TH AVE",,33.654191,-112.181006,0,0
1782,16772,"UNION HILLS DR & 59TH AVE",,33.654311,-112.185510,0,0
1783,16770,"UNION HILLS DR & 63RD AVE",,33.654191,-112.194305,0,0
1784,16769,"UNION HILLS DR & 64TH AVE",,33.653492,-112.198706,0,0
1785,16768,"UNION HILLS DR & 67TH AVE",,33.652692,-112.202306,0,0
1786,16767,"UNION HILLS DR & 68TH DR",,33.652492,-112.206309,0,0
1787,16766,"UNION HILLS DR & 70TH AVE",,33.652673,-112.209812,0,0
1788,16791,"UNION HILLS DR & 7TH AVE",,33.654492,-112.082005,0,0
1789,16771,"UNION HILLS DR & 60TH AVE",,33.654191,-112.189209,0,0
1790,16765,"UNION HILLS DR & 73RD AVE",,33.652632,-112.216182,0,0
1792,12084,"UNIVERSITY DR & ALMA SCHOOL RD",,33.421991,-111.855809,0,0
1793,12088,"UNIVERSITY DR & COUNTRY CLUB DR",,33.422285,-111.839639,0,0
1794,12081,"UNIVERSITY DR & DOBSON RD",,33.422046,-111.873701,0,0
1796,12087,"UNIVERSITY DR & HOSICK",,33.422191,-111.845009,0,0
1797,12082,"UNIVERSITY DR & LONGMORE",,33.421994,-111.865008,0,0
1798,12090,"UNIVERSITY DR & MACDONALD",,33.422265,-111.833710,0,0
1799,12089,"UNIVERSITY DR & ROBSON",,33.422265,-111.836002,0,0
1800,12083,"UNIVERSITY DR & STANDAGE",,33.421991,-111.860507,0,0
1802,12085,"UNIVERSITY DR & WESTWOOD",,33.422098,-111.852208,0,0
1803,12050,"UNIVERSITY DR & 48TH ST",,33.421832,-111.976013,0,0
1804,12051,"UNIVERSITY DR & 52ND ST",,33.421868,-111.968802,0,0
1805,12058,"UNIVERSITY DR & MAPLE AVE",,33.421819,-111.941438,0,0
1806,12054,"UNIVERSITY DR & BECK AVE",,33.421693,-111.956209,0,0
1807,12052,"UNIVERSITY DR & EDWARD DR",,33.421860,-111.965086,0,0
1808,12057,"UNIVERSITY DR & FARMER AVE",,33.421808,-111.944104,0,0
1809,12055,"UNIVERSITY DR & HARDY DR",,33.421838,-111.951671,0,0
1810,12056,"UNIVERSITY DR & MITCHELL DR",,33.421821,-111.947778,0,0
1811,12053,"UNIVERSITY DR & PRIEST DR",,33.421857,-111.959820,0,0
1813,12086,"UNIVERSITY DR & EXTENSION RD",,33.422175,-111.848707,0,0
1815,13489,"UNIVERSITY WAY & 47TH AVE",,33.609300,-112.159841,0,0
1817,10338,"VAN BUREN ST & 10TH AVE",,33.451340,-112.085749,0,0
1818,10337,"VAN BUREN ST & 13TH AVE",,33.451293,-112.088808,0,0
1819,10336,"VAN BUREN ST & 15TH AVE",,33.451315,-112.091152,0,0
1820,10335,"VAN BUREN ST & 17TH AVE",,33.451194,-112.095007,0,0
1821,10334,"VAN BUREN ST & 19TH AVE",,33.451241,-112.099512,0,0
1822,16076,"VAN BUREN ST & 21ST AVE",,33.451194,-112.104006,0,0
1823,10331,"VAN BUREN ST & 25TH AVE",,33.450994,-112.112707,0,0
1824,10330,"VAN BUREN ST & 27TH AVE",,33.450792,-112.116809,0,0
1825,10342,"VAN BUREN ST & 1ST AVE",,33.451329,-112.075486,0,0
1826,10327,"VAN BUREN ST & 31ST AVE",,33.451192,-112.125308,0,0
1827,10326,"VAN BUREN ST & 33RD AVE",,33.451293,-112.129707,0,0
1828,10325,"VAN BUREN ST & 35TH AVE",,33.451293,-112.133806,0,0
1829,10324,"VAN BUREN ST & 37TH AVE",,33.451192,-112.138307,0,0
1830,10323,"VAN BUREN ST & 39TH AVE",,33.451192,-112.142508,0,0
1831,10322,"VAN BUREN ST & 41ST AVE",,33.451309,-112.147012,0,0
1832,10321,"VAN BUREN ST & 43RD AVE",,33.451301,-112.151006,0,0
1833,10320,"VAN BUREN ST & 45TH AVE",,33.451274,-112.155509,0,0
1834,10319,"VAN BUREN ST & 47TH AVE",,33.451244,-112.159809,0,0
1835,10318,"VAN BUREN ST & 49TH AVE",,33.451203,-112.165212,0,0
1836,10317,"VAN BUREN ST & 51ST AVE",,33.451175,-112.168306,0,0
1837,10340,"VAN BUREN ST & 5TH AVE",,33.451348,-112.079811,0,0
1838,10339,"VAN BUREN ST & 7TH AVE",,33.451356,-112.082024,0,0
1840,17061,"VAN BUREN ST & 94TH AVE",,33.450285,-112.262009,0,0
1842,10299,"VAN BUREN ST & 96TH AVE",,33.450142,-112.266239,0,0
1843,10332,"VAN BUREN ST & I-17 FWY",,33.450994,-112.107205,0,0
1847,10328,"VAN BUREN ST & 29TH AVE",,33.451140,-112.121709,0,0
1848,10341,"VAN BUREN ST & 3RD AVE",,33.451342,-112.078208,0,0
1849,10300,"VAN BUREN ST & 91ST DR",,33.450249,-112.256814,0,0
1853,14208,"WARNER RD & BECK AVE",,33.334434,-111.958021,0,0
1854,17032,"WARNER RD & DATELAND DR",,33.334492,-111.941010,0,0
1855,17029,"WARNER RD & HARDY DR",,33.334404,-111.953505,0,0
1856,14206,"WARNER RD & HARL AVE",,33.334407,-111.965850,0,0
1857,17031,"WARNER RD & KYRENE RD",,33.334489,-111.945225,0,0
1858,17033,"WARNER RD & MAPLE",,33.334492,-111.938507,0,0
1859,17030,"WARNER RD & MCKEMY ST",,33.334486,-111.949019,0,0
1860,14207,"WARNER RD & PRIEST DR",,33.334459,-111.962694,0,0
1861,10241,"WASHINGTON ST & 56TH ST",,33.444999,-111.960301,0,0
1865,11754,"YORKSHIRE DR & 31ST AVE",,33.662691,-112.125009,0,0
1866,11753,"YORKSHIRE DR & 33RD AVE",,33.661992,-112.130507,0,0
1867,11752,"YORKSHIRE DR & 35TH AVE",,33.661792,-112.134208,0,0
1868,11756,"UTOPIA RD -- I-17 FWY & 23RD AVE",,33.661792,-112.110510,0,0
1869,11755,"YORKSHIRE DR & 27TH AVE",,33.662491,-112.117506,0,0
1872,10076,"CENTRAL STATION NB LANE STOP 3",,33.452074,-112.074470,0,0
1873,14876,"DRINKWATER BLVD & 4TH ST",,33.488796,-111.921788,0,0
1875,16183,"CIVIC CENTER DR & WARNER RD",,33.334774,-111.785360,0,0
1878,14885,"JACKRABBIT RD & 77TH ST",,33.516651,-111.915208,0,0
1879,11197,"NORTHERN AVE & 14TH ST --WESTBOUND",,33.553291,-112.052991,0,0
1883,15116,"VIA DE VENTURA & VIA DE NEGOCIO",,33.552919,-111.892957,0,0
1895,11716,"METRO PKWY & CHERYL DR",,33.576299,-112.124763,0,0
1896,11717,"METRO PKWY & COCHISE DR",,33.579146,-112.123897,0,0
1899,15784,"111TH AVE & SILVER BELL DR",,33.607993,-112.298010,0,0
1900,15781,"111TH AVE & TENNESSEE AVE",,33.599791,-112.298506,0,0
1901,15777,"111TH AVE & HOLLYWOOD AVE",,33.587298,-112.298657,0,0
1902,15780,"111TH AVE & CHERRY HILLS DR",,33.598193,-112.298507,0,0
1903,15778,"111TH AVE & CONNECTICUT AVE",,33.591992,-112.298660,0,0
1904,15783,"111TH AVE & GRAND AVE",,33.605694,-112.298509,0,0
1905,15776,"111TH AVE & MONTANA AVE",,33.583996,-112.298693,0,0
1906,15775,"111TH AVE & PEORIA AVE",,33.580289,-112.298637,0,0
1907,15782,"111TH AVE & WINDSOR DR",,33.602907,-112.298677,0,0
1908,15779,"111TH AVE & YOUNGTOWN AVE",,33.594804,-112.298686,0,0
1909,10873,"11TH ST & FILLMORE ST",,33.455031,-112.058904,0,0
1910,18210,"11TH ST & ROOSEVELT ST",,33.459070,-112.058890,0,0
1911,18399,"11TH ST & VAN BUREN ST",,33.451657,-112.058907,0,0
1912,10890,"12TH ST & DEVONSHIRE AVE",,33.497258,-112.056265,0,0
1913,10891,"12TH ST & TURNEY AVE",,33.499678,-112.056251,0,0
1914,10910,"12TH ST & ALICE AVE",,33.564283,-112.056576,0,0
1915,10906,"12TH ST & BELMONT AVE",,33.549551,-112.056457,0,0
1916,18200,"12TH ST & BETHANY HOME RD",,33.524053,-112.056175,0,0
1917,10909,"12TH ST & BUTLER DR",,33.560882,-112.056679,0,0
1918,10894,"12TH ST & CAMELBACK RD",,33.509748,-112.056202,0,0
1919,10892,"12TH ST & CAMPBELL AVE",,33.502226,-112.056247,0,0
1920,10888,"12TH ST & CLARENDON AVE",,33.491394,-112.056278,0,0
1921,10895,"12TH ST & COLTER ST",,33.513294,-112.056198,0,0
1922,10911,"12TH ST & DUNLAP AVE",,33.567897,-112.056732,0,0
1923,10902,"12TH ST & GLENDALE AVE",,33.538694,-112.056207,0,0
1924,10908,"12TH ST & GRISWOLD RD",,33.557331,-112.056607,0,0
1925,10893,"12TH ST & HIGHLAND AVE",,33.505822,-112.056219,0,0
1926,10889,"12TH ST & INDIAN SCHOOL RD",,33.495052,-112.056276,0,0
1927,10900,"12TH ST & MARYLAND AVE",,33.531208,-112.056176,0,0
1928,10877,"12TH ST & MCDOWELL RD",,33.466148,-112.056318,0,0
1929,10896,"12TH ST & MISSOURI AVE",,33.516994,-112.056194,0,0
1930,10897,"12TH ST & MONTEBELLO AVE",,33.520296,-112.056182,0,0
1931,10903,"12TH ST & MYRTLE AVE",,33.541999,-112.056290,0,0
1932,10907,"12TH ST & NORTHERN AVE",,33.553522,-112.056429,0,0
1933,10879,"12TH ST & OAK ST",,33.473191,-112.056309,0,0
1934,10901,"12TH ST & OCOTILLO RD",,33.534792,-112.056207,0,0
1935,10887,"12TH ST & OSBORN RD",,33.487739,-112.056304,0,0
1937,10899,"12TH ST & ROSE LN",,33.527514,-112.056163,0,0
1938,10880,"12TH ST & VIRGINIA AVE",,33.476780,-112.056321,0,0
1939,10876,"12TH ST & WILLETTA ST",,33.463959,-112.056325,0,0
1940,10881,"12TH ST & THOMAS RD",,33.479781,-112.056318,0,0
1941,10905,"12TH ST & WAGON WHEEL DR",,33.546770,-112.056400,0,0
1942,10904,"12TH ST & STATE AVE",,33.544484,-112.056346,0,0
1945,11072,"15TH AVE & CAMELBACK RD",,33.509992,-112.091152,0,0
1946,11070,"15TH AVE & CAMPBELL AVE",,33.502692,-112.091207,0,0
1947,11067,"15TH AVE & CLARENDON AVE",,33.491696,-112.091253,0,0
1948,15723,"15TH AVE & COCHISE DR",,33.580491,-112.091206,0,0
1949,18186,"15TH AVE & COLTER ST",,33.513242,-112.091126,0,0
1950,11059,"15TH AVE & CULVER ST",,33.462994,-112.091218,0,0
1951,18169,"15TH AVE & VERNON AVE",,33.473454,-112.091323,0,0
1952,11057,"15TH AVE & PIERCE ST",,33.456097,-112.091179,0,0
1953,11069,"15TH AVE & GLENROSA AVE",,33.498993,-112.091209,0,0
1954,15720,"15TH AVE & HATCHER RD",,33.571714,-112.091125,0,0
1955,18185,"15TH AVE & HIGHLAND AVE",,33.505992,-112.091183,0,0
1956,11068,"15TH AVE & INDIAN SCHOOL RD",,33.495302,-112.091237,0,0
1957,11060,"15TH AVE & MCDOWELL RD",,33.466493,-112.091315,0,0
1959,15721,"15TH AVE & MOUNTAIN VIEW RD",,33.575192,-112.091005,0,0
1960,11066,"15TH AVE & OSBORN RD",,33.487985,-112.091272,0,0
1961,11061,"15TH AVE & PALM LN",,33.469697,-112.091349,0,0
1962,11058,"15TH AVE & ROOSEVELT ST",,33.459108,-112.091194,0,0
1963,11064,"15TH AVE & THOMAS RD",,33.480652,-112.091314,0,0
1964,11056,"15TH AVE & VAN BUREN ST",,33.451515,-112.091231,0,0
1965,11055,"15TH AVE & WASHINGTON ST",,33.448492,-112.091315,0,0
